$GNGSA,A,3,02,06,12,14,15,17,24,25,,,,,1.4,0.8,1.2*23
$GNGSA,A,3,88,,,,,,,,,,,,1.4,0.8,1.2*22
$GPRMC,071219.000,A,4909.933210,N,02016.678859,E,1.9,188.6,120815,,,A*64
$GPGGA,071219.000,4909.933210,N,02016.678859,E,1,09,0.8,877.3,M,41.8,M,,*51
$GPGSA,A,3,02,06,12,14,15,17,24,25,,,,,1.6,0.8,1.3*3E
$GPGSV,2,1,08,02,19,133,27,06,27,096,27,12,69,286,22,14,29,306,18*77
$GPGSV,2,2,08,15,08,190,16,17,23,047,20,24,74,163,32,25,29,268,18*7D
$GLGSV,1,1,01,88,56,154,19*5F
$GNGSA,A,3,02,06,12,14,15,17,24,25,,,,,1.4,0.8,1.2*23
$GNGSA,A,3,88,,,,,,,,,,,,1.4,0.8,1.2*22
$GPRMC,071220.000,A,4909.931812,N,02016.678769,E,1.9,191.8,120815,,,A*6E
$GPGGA,071220.000,4909.931812,N,02016.678769,E,1,09,0.8,877.1,M,41.8,M,,*5F
$GPGSA,A,3,02,06,12,14,15,17,25,,,,,,1.8,0.8,1.5*30
$GPGSV,2,1,08,02,19,133,25,06,27,096,28,12,69,286,22,14,29,306,18*7A
$GPGSV,2,2,08,15,08,190,16,17,23,047,20,24,74,163,29,25,29,268,20*7C
$GLGSV,1,1,01,88,56,154,19*5F
$GNGSA,A,3,02,06,12,14,15,17,25,,,,,,1.6,0.8,1.4*21
$GNGSA,A,3,88,,,,,,,,,,,,1.6,0.8,1.4*26
$GPRMC,071221.000,A,4909.930941,N,02016.679251,E,2.3,178.3,120815,,,A*63
$GPGGA,071221.000,4909.930941,N,02016.679251,E,1,08,0.8,877.0,M,41.8,M,,*57
$GPGSA,A,3,02,06,12,14,15,17,24,25,,,,,1.6,0.8,1.3*3E
$GPGSV,2,1,08,02,19,133,21,06,27,096,28,12,69,286,23,14,29,306,18*7F
$GPGSV,2,2,08,15,08,190,16,17,23,047,20,24,74,163,30,25,29,268,21*75
$GLGSV,1,1,01,88,56,154,18*5E
$GNGSA,A,3,02,06,12,14,15,17,24,25,,,,,1.4,0.8,1.2*23
$GNGSA,A,3,88,,,,,,,,,,,,1.4,0.8,1.2*22
$GPRMC,071222.000,A,4909.930221,N,02016.679243,E,1.3,175.5,120815,,,A*66
$GPGGA,071222.000,4909.930221,N,02016.679243,E,1,09,0.8,877.0,M,41.8,M,,*5B
$GPGSA,A,3,02,06,12,14,15,17,24,25,,,,,1.6,0.8,1.3*3E
$GPGSV,2,1,08,02,19,133,21,06,27,096,28,12,69,286,23,14,29,306,18*7F
$GPGSV,2,2,08,15,08,190,16,17,23,047,20,24,74,163,28,25,29,268,21*7C
$GLGSV,1,1,01,88,56,154,18*5E
$GNGSA,A,3,02,06,12,14,15,17,24,25,,,,,1.4,0.8,1.2*23
$GNGSA,A,3,88,,,,,,,,,,,,1.4,0.8,1.2*22
$GPRMC,071223.000,A,4909.929885,N,02016.679496,E,1.2,167.4,120815,,,A*66
$GPGGA,071223.000,4909.929885,N,02016.679496,E,1,09,0.8,877.0,M,41.8,M,,*58
$GPGSA,A,3,02,06,12,14,15,17,24,25,,,,,1.6,0.8,1.3*3E
$GPGSV,2,1,08,02,19,133,22,06,27,096,28,12,69,286,29,14,29,306,18*76
$GPGSV,2,2,08,15,08,190,16,17,23,047,20,24,74,163,27,25,29,268,21*73
$GLGSV,1,1,01,88,56,154,18*5E
$GNGSA,A,3,02,06,12,14,15,17,24,25,,,,,1.4,0.8,1.2*23
$GNGSA,A,3,88,,,,,,,,,,,,1.4,0.8,1.2*22
$GPRMC,071224.000,A,4909.929621,N,02016.680096,E,1.4,155.4,120815,,,A*64
$GPGGA,071224.000,4909.929621,N,02016.680096,E,1,09,0.8,876.6,M,41.8,M,,*5A
$GPGSA,A,3,02,06,12,14,15,17,24,25,,,,,1.6,0.8,1.3*3E
$GPGSV,2,1,08,02,19,133,22,06,27,096,28,12,69,286,28,14,29,306,18*77
$GPGSV,2,2,08,15,08,190,16,17,23,047,20,24,74,163,24,25,29,268,21*70
$GLGSV,1,1,01,88,56,154,18*5E
$GNGSA,A,3,02,06,12,14,15,17,24,25,,,,,1.4,0.8,1.2*23
$GNGSA,A,3,88,,,,,,,,,,,,1.4,0.8,1.2*22
$GPRMC,071225.000,A,4909.929262,N,02016.680360,E,1.4,148.1,120815,,,A*65
$GPGGA,071225.000,4909.929262,N,02016.680360,E,1,09,0.8,876.4,M,41.8,M,,*50
$GPGSA,A,3,02,06,12,14,15,17,24,25,,,,,1.6,0.8,1.3*3E
$GPGSV,2,1,08,02,19,133,22,06,27,096,28,12,69,286,15,14,29,306,18*79
$GPGSV,2,2,08,15,08,190,22,17,23,047,20,24,74,163,24,25,29,268,21*77
$GLGSV,1,1,01,88,56,154,18*5E
$GNGSA,A,3,02,06,12,14,15,17,24,25,,,,,1.4,0.8,1.2*23
$GNGSA,A,3,88,,,,,,,,,,,,1.4,0.8,1.2*22
$GPRMC,071226.000,A,4909.928770,N,02016.680606,E,0.9,142.2,120815,,,A*61
$GPGGA,071226.000,4909.928770,N,02016.680606,E,1,09,0.8,876.2,M,41.8,M,,*57
$GPGSA,A,3,02,06,12,14,15,17,24,,,,,,1.6,0.8,1.3*39
$GPGSV,2,1,08,02,19,133,32,06,27,096,22,12,69,286,17,14,29,306,18*70
$GPGSV,2,2,08,15,08,190,26,17,23,047,21,24,74,163,24,25,29,268,04*75
$GLGSV,1,1,01,88,56,154,18*5E
$GNGSA,A,3,02,06,12,14,15,17,24,,,,,,1.6,0.8,1.2*26
$GNGSA,A,3,88,,,,,,,,,,,,1.6,0.8,1.2*20
$GPRMC,071227.000,A,4909.927396,N,02016.680318,E,1.2,145.1,120815,,,A*67
$GPGGA,071227.000,4909.927396,N,02016.680318,E,1,08,0.8,875.6,M,41.8,M,,*59
$GPGSA,A,3,02,06,12,14,15,17,24,25,,,,,1.6,0.8,1.3*3E
$GPGSV,2,1,08,02,19,133,28,06,27,096,23,12,69,286,19,14,29,306,18*74
$GPGSV,2,2,08,15,08,190,24,17,23,047,26,24,74,163,24,25,29,268,15*70
$GLGSV,1,1,01,88,56,154,18*5E
$GNGSA,A,3,02,06,12,14,15,17,24,25,,,,,1.4,0.8,1.2*23
$GNGSA,A,3,88,,,,,,,,,,,,1.4,0.8,1.2*22
$GPRMC,071228.000,A,4909.926868,N,02016.680504,E,1.5,147.8,120815,,,A*64
$GPGGA,071228.000,4909.926868,N,02016.680504,E,1,09,0.8,875.2,M,41.8,M,,*53
$GPGSA,A,3,02,06,12,14,15,17,24,25,,,,,1.6,0.8,1.3*3E
$GPGSV,2,1,08,02,19,133,27,06,27,096,25,12,69,286,21,14,29,306,17*79
$GPGSV,2,2,08,15,08,190,25,17,23,047,27,24,74,163,24,25,29,268,16*73
$GLGSV,1,1,01,88,56,154,18*5E
$GNGSA,A,3,02,06,12,14,15,17,24,25,,,,,1.4,0.8,1.2*23
$GNGSA,A,3,88,,,,,,,,,,,,1.4,0.8,1.2*22
$GPRMC,071229.000,A,4909.926165,N,02016.680859,E,2.0,144.8,120815,,,A*61
$GPGGA,071229.000,4909.926165,N,02016.680859,E,1,09,0.8,875.0,M,41.8,M,,*51
$GPGSA,A,3,02,06,12,14,15,17,24,25,,,,,1.6,0.8,1.3*3E
$GPGSV,2,1,08,02,19,133,21,06,27,096,24,12,69,286,21,14,29,306,17*7E
$GPGSV,2,2,08,15,08,190,25,17,23,047,26,24,74,163,24,25,29,268,17*73
$GLGSV,1,1,01,88,56,154,18*5E
$GNGSA,A,3,02,06,12,14,15,17,24,25,,,,,1.4,0.8,1.2*23
$GNGSA,A,3,88,,,,,,,,,,,,1.4,0.8,1.2*22
$GPRMC,071230.000,A,4909.925380,N,02016.681099,E,2.2,149.8,120815,,,A*69
$GPGGA,071230.000,4909.925380,N,02016.681099,E,1,09,0.8,874.6,M,41.8,M,,*51
$GPGSA,A,3,02,06,12,14,15,17,24,,,,,,1.6,0.8,1.3*39
$GPGSV,2,1,08,02,19,133,20,06,27,096,24,12,69,286,34,14,29,306,17*7B
$GPGSV,2,2,08,15,08,190,25,17,23,047,26,24,74,163,24,25,29,268,17*73
$GLGSV,1,1,01,88,56,154,18*5E
$GNGSA,A,3,02,06,12,14,15,17,24,,,,,,1.6,0.8,1.2*26
$GNGSA,A,3,88,,,,,,,,,,,,1.6,0.8,1.2*20
$GPRMC,071231.000,A,4909.924683,N,02016.681147,E,2.0,154.4,120815,,,A*6F
$GPGGA,071231.000,4909.924683,N,02016.681147,E,1,08,0.8,874.3,M,41.8,M,,*51
$GPGSA,A,3,02,06,12,14,15,17,24,25,,,,,1.6,0.8,1.3*3E
$GPGSV,2,1,08,02,19,133,21,06,27,096,23,12,69,286,32,14,29,306,17*7B
$GPGSV,2,2,08,15,08,190,24,17,23,047,23,24,74,163,23,25,29,268,17*70
$GLGSV,1,1,01,88,56,154,17*51
$GNGSA,A,3,02,06,12,14,15,17,24,25,,,,,1.4,0.8,1.2*23
$GNGSA,A,3,88,,,,,,,,,,,,1.4,0.8,1.2*22
$GPRMC,071232.000,A,4909.924185,N,02016.681404,E,1.6,157.0,120815,,,A*6D
$GPGGA,071232.000,4909.924185,N,02016.681404,E,1,09,0.8,873.9,M,41.8,M,,*5D
$GPGSA,A,3,02,06,12,14,15,17,24,25,,,,,1.6,0.8,1.3*3E
$GPGSV,2,1,08,02,19,133,21,06,27,096,19,12,69,286,24,14,29,306,17*75
$GPGSV,2,2,08,15,08,190,24,17,23,047,22,24,74,163,17,25,29,268,17*76
$GLGSV,1,1,01,88,56,154,18*5E
$GNGSA,A,3,02,06,12,14,15,17,24,25,,,,,1.4,0.8,1.2*23
$GNGSA,A,3,88,,,,,,,,,,,,1.4,0.8,1.2*22
$GPRMC,071233.000,A,4909.923669,N,02016.681217,E,1.0,161.1,120815,,,A*68
$GPGGA,071233.000,4909.923669,N,02016.681217,E,1,09,0.8,873.6,M,41.8,M,,*55
$GPGSA,A,3,02,06,12,14,15,17,24,25,,,,,1.6,0.8,1.3*3E
$GPGSV,2,1,08,02,19,133,21,06,27,096,18,12,69,286,24,14,29,306,17*74
$GPGSV,2,2,08,15,08,190,23,17,23,047,22,24,74,163,17,25,29,268,17*71
$GLGSV,1,1,01,88,56,154,18*5E
$GNGSA,A,3,02,06,12,14,15,17,24,25,,,,,1.4,0.8,1.2*23
$GNGSA,A,3,88,,,,,,,,,,,,1.4,0.8,1.2*22
$GPRMC,071234.000,A,4909.923130,N,02016.681182,E,1.0,166.9,120815,,,A*64
$GPGGA,071234.000,4909.923130,N,02016.681182,E,1,09,0.8,873.2,M,41.8,M,,*52
$GPGSA,A,3,02,06,12,14,15,17,24,25,,,,,1.6,0.8,1.3*3E
$GPGSV,2,1,08,02,19,133,21,06,27,096,18,12,69,286,23,14,29,306,17*73
$GPGSV,2,2,08,15,08,190,23,17,23,047,23,24,74,163,17,25,29,268,17*70
$GLGSV,1,1,01,88,56,154,18*5E
$GNGSA,A,3,02,06,12,14,15,17,24,25,,,,,1.4,0.8,1.2*23
$GNGSA,A,3,88,,,,,,,,,,,,1.4,0.8,1.2*22
$GPRMC,071235.000,A,4909.922625,N,02016.680918,E,1.0,171.2,120815,,,A*60
$GPGGA,071235.000,4909.922625,N,02016.680918,E,1,09,0.8,872.9,M,41.8,M,,*51
$GPGSA,A,3,02,06,12,14,15,17,24,25,,,,,1.6,0.8,1.3*3E
$GPGSV,2,1,08,02,19,133,21,06,27,096,19,12,69,286,22,14,29,306,17*73
$GPGSV,2,2,08,15,08,190,23,17,23,047,23,24,74,163,30,25,29,268,18*7A
$GLGSV,1,1,01,88,56,154,18*5E
$GNGSA,A,3,02,06,12,14,15,17,24,25,,,,,1.4,0.8,1.2*23
$GNGSA,A,3,88,,,,,,,,,,,,1.4,0.8,1.2*22
$GPRMC,071236.000,A,4909.922080,N,02016.680504,E,1.6,199.3,120815,,,A*6A
$GPGGA,071236.000,4909.922080,N,02016.680504,E,1,09,0.8,872.6,M,41.8,M,,*55
$GPGSA,A,3,02,06,12,14,15,17,24,25,,,,,1.6,0.8,1.3*3E
$GPGSV,2,1,08,02,19,133,21,06,27,096,20,12,69,286,22,14,29,306,17*79
$GPGSV,2,2,08,15,08,190,23,17,23,047,23,24,74,163,27,25,29,268,18*7C
$GLGSV,1,1,01,88,56,154,18*5E
$GNGSA,A,3,02,06,12,14,15,17,24,25,,,,,1.4,0.8,1.2*23
$GNGSA,A,3,88,,,,,,,,,,,,1.4,0.8,1.2*22
$GPRMC,071237.000,A,4909.921492,N,02016.680209,E,1.0,206.7,120815,,,A*62
$GPGGA,071237.000,4909.921492,N,02016.680209,E,1,09,0.8,872.3,M,41.8,M,,*5F
$GPGSA,A,3,02,06,12,14,15,17,24,25,,,,,1.6,0.8,1.3*3E
$GPGSV,2,1,08,02,19,133,21,06,27,096,20,12,69,286,22,14,29,306,17*79
$GPGSV,2,2,08,15,08,190,24,17,23,047,23,24,74,163,27,25,29,268,19*7A
$GLGSV,1,1,01,88,56,154,19*5F
$GNGSA,A,3,02,06,12,14,15,17,24,25,,,,,1.4,0.8,1.2*23
$GNGSA,A,3,88,,,,,,,,,,,,1.4,0.8,1.2*22
$GPRMC,071238.000,A,4909.921150,N,02016.680131,E,1.0,205.1,120815,,,A*6B
$GPGGA,071238.000,4909.921150,N,02016.680131,E,1,09,0.8,872.0,M,41.8,M,,*50
$GPGSA,A,3,02,06,12,14,15,17,24,25,,,,,1.6,0.8,1.3*3E
$GPGSV,2,1,08,02,19,133,28,06,27,096,21,12,69,286,22,14,29,306,17*71
$GPGSV,2,2,08,15,08,190,24,17,23,047,23,24,74,163,28,25,29,268,19*75
$GLGSV,1,1,01,88,56,154,19*5F
$GNGSA,A,3,02,06,12,14,15,17,24,25,,,,,1.4,0.8,1.2*23
$GNGSA,A,3,88,,,,,,,,,,,,1.4,0.8,1.2*22
$GPRMC,071239.000,A,4909.920778,N,02016.679838,E,1.2,204.4,120815,,,A*67
$GPGGA,071239.000,4909.920778,N,02016.679838,E,1,09,0.8,871.8,M,41.8,M,,*51
$GPGSA,A,3,02,06,12,14,15,17,24,25,,,,,1.6,0.8,1.3*3E
$GPGSV,2,1,08,02,19,133,26,06,27,096,21,12,69,286,22,14,29,306,18*70
$GPGSV,2,2,08,15,08,190,23,17,23,047,22,24,74,163,28,25,29,268,19*73
$GLGSV,1,1,01,88,56,154,19*5F
$GNGSA,A,3,02,06,12,14,15,17,24,25,,,,,1.4,0.8,1.2*23
$GNGSA,A,3,88,,,,,,,,,,,,1.4,0.8,1.2*22
$GPRMC,071240.000,A,4909.920676,N,02016.679734,E,0.7,209.0,120815,,,A*68
$GPGGA,071240.000,4909.920676,N,02016.679734,E,1,09,0.8,871.6,M,41.8,M,,*5D
$GPGSA,A,3,06,12,14,15,17,24,,,,,,,1.7,1.0,1.3*33
$GPGSV,2,1,08,02,19,133,24,06,27,096,22,12,69,286,22,14,29,306,18*71
$GPGSV,2,2,08,15,08,190,14,17,23,047,22,24,74,163,29,25,29,268,20*7C
$GLGSV,1,1,01,88,56,154,19*5F
$GNGSA,A,3,06,12,14,15,17,24,,,,,,,1.6,1.0,1.2*2D
$GNGSA,A,3,88,,,,,,,,,,,,1.6,1.0,1.2*29
$GPRMC,071241.000,A,4909.920333,N,02016.679670,E,1.0,200.5,120815,,,A*66
$GPGGA,071241.000,4909.920333,N,02016.679670,E,1,07,1.0,871.4,M,41.8,M,,*5C
$GPGSA,A,3,02,06,12,14,15,17,24,25,,,,,1.6,0.8,1.3*3E
$GPGSV,2,1,08,02,19,133,24,06,27,096,22,12,69,286,22,14,29,306,18*71
$GPGSV,2,2,08,15,08,190,16,17,23,047,22,24,74,163,29,25,29,268,19*74
$GLGSV,1,1,01,88,56,154,19*5F
$GNGSA,A,3,02,06,12,14,15,17,24,25,,,,,1.4,0.8,1.2*23
$GNGSA,A,3,88,,,,,,,,,,,,1.4,0.8,1.2*22
$GPRMC,071242.000,A,4909.919781,N,02016.679424,E,1.6,194.5,120815,,,A*69
$GPGGA,071242.000,4909.919781,N,02016.679424,E,1,09,0.8,871.4,M,41.8,M,,*5C
$GPGSA,A,3,02,06,12,14,15,17,24,25,,,,,1.6,0.8,1.3*3E
$GPGSV,2,1,08,02,19,133,23,06,27,096,21,12,69,286,22,14,29,306,18*75
$GPGSV,2,2,08,15,08,190,27,17,23,047,22,24,74,163,29,25,29,268,19*76
$GLGSV,1,1,01,88,56,154,20*55
$GNGSA,A,3,02,06,12,14,15,17,24,25,,,,,1.4,0.8,1.2*23
$GNGSA,A,3,88,,,,,,,,,,,,1.4,0.8,1.2*22
$GPRMC,071243.000,A,4909.918792,N,02016.679057,E,1.7,194.2,120815,,,A*6D
$GPGGA,071243.000,4909.918792,N,02016.679057,E,1,09,0.8,871.3,M,41.8,M,,*59
$GPGSA,A,3,02,06,12,14,15,17,24,25,,,,,1.6,0.8,1.3*3E
$GPGSV,2,1,08,02,19,133,22,06,27,096,21,12,69,286,22,14,29,306,18*74
$GPGSV,2,2,08,15,08,190,28,17,23,047,22,24,74,163,29,25,29,268,19*79
$GLGSV,1,1,01,88,56,154,20*55
$GNGSA,A,3,02,06,12,14,15,17,24,25,,,,,1.4,0.8,1.2*23
$GNGSA,A,3,88,,,,,,,,,,,,1.4,0.8,1.2*22
$GPRMC,071244.000,A,4909.917663,N,02016.678721,E,1.8,192.9,120815,,,A*6F
$GPGGA,071244.000,4909.917663,N,02016.678721,E,1,09,0.8,870.8,M,41.8,M,,*53
$GPGSA,A,3,02,06,12,14,15,17,24,25,,,,,1.6,0.8,1.3*3E
$GPGSV,2,1,08,02,19,133,21,06,27,096,21,12,69,286,21,14,29,306,18*74
$GPGSV,2,2,08,15,08,190,26,17,23,047,22,24,74,163,29,25,29,268,19*77
$GLGSV,1,1,01,88,56,154,20*55
$GNGSA,A,3,02,06,12,14,15,17,24,25,,,,,1.4,0.8,1.2*23
$GNGSA,A,3,88,,,,,,,,,,,,1.4,0.8,1.2*22
$GPRMC,071245.000,A,4909.916817,N,02016.678481,E,2.3,191.0,120815,,,A*69
$GPGGA,071245.000,4909.916817,N,02016.678481,E,1,09,0.8,870.4,M,41.8,M,,*5B
$GPGSA,A,3,02,12,14,15,17,24,25,,,,,,1.6,0.8,1.3*38
$GPGSV,2,1,08,02,19,133,21,06,27,096,06,12,69,286,21,14,29,306,18*71
$GPGSV,2,2,08,15,08,190,25,17,23,047,22,24,74,163,29,25,29,268,19*74
$GLGSV,1,1,01,88,56,154,20*55
$GNGSA,A,3,02,12,14,15,17,24,25,,,,,,1.6,0.8,1.2*27
$GNGSA,A,3,88,,,,,,,,,,,,1.6,0.8,1.2*20
$GPRMC,071246.000,A,4909.916374,N,02016.678518,E,1.7,188.6,120815,,,A*6C
$GPGGA,071246.000,4909.916374,N,02016.678518,E,1,08,0.8,870.3,M,41.8,M,,*51
$GPGSA,A,3,02,06,12,14,15,17,24,25,,,,,1.6,0.8,1.3*3E
$GPGSV,2,1,08,02,19,133,29,06,27,096,17,12,69,286,21,14,29,306,18*79
$GPGSV,2,2,08,15,08,190,20,17,23,047,22,24,74,163,29,25,29,268,20*7B
$GLGSV,1,1,01,88,56,154,20*55
$GNGSA,A,3,02,06,12,14,15,17,24,25,,,,,1.4,0.8,1.2*23
$GNGSA,A,3,88,,,,,,,,,,,,1.4,0.8,1.2*22
$GPRMC,071247.000,A,4909.916097,N,02016.677881,E,1.5,193.3,120815,,,A*6C
$GPGGA,071247.000,4909.916097,N,02016.677881,E,1,09,0.8,870.2,M,41.8,M,,*5C
$GPGSA,A,3,02,06,12,14,15,17,24,25,,,,,1.6,0.8,1.3*3E
$GPGSV,2,1,08,02,19,133,24,06,27,096,17,12,69,286,21,14,29,306,18*74
$GPGSV,2,2,08,15,08,190,20,17,23,047,22,24,74,163,29,25,29,268,20*7B
$GLGSV,1,1,01,88,56,154,20*55
$GNGSA,A,3,02,06,12,14,15,17,24,25,,,,,1.4,0.8,1.2*23
$GNGSA,A,3,88,,,,,,,,,,,,1.4,0.8,1.2*22
$GPRMC,071248.000,A,4909.915809,N,02016.677036,E,1.8,206.0,120815,,,A*6A
$GPGGA,071248.000,4909.915809,N,02016.677036,E,1,09,0.8,870.1,M,41.8,M,,*58
$GPGSA,A,3,02,06,12,14,15,17,24,25,,,,,1.6,0.8,1.3*3E
$GPGSV,2,1,08,02,19,133,24,06,27,096,18,12,69,286,21,14,29,306,28*78
$GPGSV,2,2,08,15,08,190,20,17,23,047,22,24,74,163,29,25,29,268,20*7B
$GLGSV,1,1,01,88,56,154,20*55
$GNGSA,A,3,02,06,12,14,15,17,24,25,,,,,1.4,0.8,1.2*23
$GNGSA,A,3,88,,,,,,,,,,,,1.4,0.8,1.2*22
$GPRMC,071249.000,A,4909.915131,N,02016.676520,E,2.1,213.2,120815,,,A*66
$GPGGA,071249.000,4909.915131,N,02016.676520,E,1,09,0.8,870.0,M,41.8,M,,*59
$GPGSA,A,3,02,06,12,14,15,17,24,25,,,,,1.6,0.8,1.3*3E
$GPGSV,2,1,08,02,19,133,25,06,27,096,21,12,69,286,21,14,29,306,23*78
$GPGSV,2,2,08,15,08,190,20,17,23,047,22,24,74,163,29,25,29,268,20*7B
$GLGSV,1,1,01,88,56,154,20*55
$GNGSA,A,3,02,06,12,14,15,17,24,25,,,,,1.4,0.8,1.2*23
$GNGSA,A,3,88,,,,,,,,,,,,1.4,0.8,1.2*22
$GPRMC,071250.000,A,4909.914489,N,02016.676256,E,2.1,213.7,120815,,,A*6A
$GPGGA,071250.000,4909.914489,N,02016.676256,E,1,09,0.8,870.2,M,41.8,M,,*52
$GPGSA,A,3,02,06,12,14,15,17,24,25,,,,,1.6,0.8,1.3*3E
$GPGSV,2,1,08,02,19,133,25,06,27,096,23,12,69,286,24,14,29,306,24*78
$GPGSV,2,2,08,15,08,190,20,17,23,047,22,24,74,163,29,25,29,268,20*7B
$GLGSV,1,1,01,88,56,154,20*55
$GNGSA,A,3,02,06,12,14,15,17,24,25,,,,,1.4,0.8,1.2*23
$GNGSA,A,3,88,,,,,,,,,,,,1.4,0.8,1.2*22
$GPRMC,071251.000,A,4909.914064,N,02016.675937,E,1.9,214.8,120815,,,A*60
$GPGGA,071251.000,4909.914064,N,02016.675937,E,1,09,0.8,870.3,M,41.8,M,,*5A
$GPGSA,A,3,06,12,14,15,17,24,25,,,,,,1.6,0.8,1.3*3C
$GPGSV,2,1,08,02,19,133,24,06,27,096,24,12,69,286,26,14,29,306,25*7D
$GPGSV,2,2,08,15,08,190,20,17,23,047,22,24,74,163,29,25,29,268,20*7B
$GLGSV,1,1,01,88,56,154,20*55
$GNGSA,A,3,06,12,14,15,17,24,25,,,,,,1.6,0.8,1.2*23
$GNGSA,A,3,88,,,,,,,,,,,,1.6,0.8,1.2*20
$GPRMC,071252.000,A,4909.913560,N,02016.675584,E,1.9,215.9,120815,,,A*61
$GPGGA,071252.000,4909.913560,N,02016.675584,E,1,08,0.8,870.1,M,41.8,M,,*58
$GPGSA,A,3,02,06,12,14,15,17,24,25,,,,,1.6,0.8,1.3*3E
$GPGSV,2,1,08,02,19,133,24,06,27,096,24,12,69,286,27,14,29,306,26*7F
$GPGSV,2,2,08,15,08,190,20,17,23,047,22,24,74,163,29,25,29,268,20*7B
$GLGSV,1,1,01,88,56,154,20*55
$GNGSA,A,3,02,06,12,14,15,17,24,25,,,,,1.4,0.8,1.2*23
$GNGSA,A,3,88,,,,,,,,,,,,1.4,0.8,1.2*22
$GPRMC,071253.000,A,4909.912810,N,02016.675140,E,2.4,213.0,120815,,,A*66
$GPGGA,071253.000,4909.912810,N,02016.675140,E,1,09,0.8,870.1,M,41.8,M,,*5F
$GPGSA,A,3,02,06,12,14,15,17,24,25,,,,,1.6,0.8,1.3*3E
$GPGSV,2,1,08,02,19,133,20,06,27,096,24,12,69,286,28,14,29,306,26*74
$GPGSV,2,2,08,15,08,190,20,17,23,047,22,24,74,163,29,25,29,268,20*7B
$GLGSV,1,1,01,88,56,154,20*55
$GNGSA,A,3,02,06,12,14,15,17,24,25,,,,,1.4,0.8,1.2*23
$GNGSA,A,3,88,,,,,,,,,,,,1.4,0.8,1.2*22
$GPRMC,071254.000,A,4909.912096,N,02016.674744,E,2.6,208.2,120815,,,A*6E
$GPGGA,071254.000,4909.912096,N,02016.674744,E,1,09,0.8,869.9,M,41.8,M,,*5D
$GPGSA,A,3,02,06,12,14,15,17,24,25,,,,,1.6,0.8,1.3*3E
$GPGSV,2,1,08,02,19,133,20,06,27,096,23,12,69,286,28,14,29,306,25*70
$GPGSV,2,2,08,15,08,190,20,17,23,047,22,24,74,163,29,25,29,268,20*7B
$GLGSV,1,1,01,88,56,154,20*55
$GNGSA,A,3,02,06,12,14,15,17,24,25,,,,,1.4,0.8,1.2*23
$GNGSA,A,3,88,,,,,,,,,,,,1.4,0.8,1.2*22
$GPRMC,071255.000,A,4909.911490,N,02016.674689,E,2.1,208.5,120815,,,A*6E
$GPGGA,071255.000,4909.911490,N,02016.674689,E,1,09,0.8,869.8,M,41.8,M,,*5C
$GPGSA,A,3,02,06,12,14,15,17,24,25,,,,,1.6,0.8,1.3*3E
$GPGSV,2,1,08,02,19,133,21,06,27,096,20,12,69,286,27,14,29,306,25*7D
$GPGSV,2,2,08,15,08,190,19,17,23,047,22,24,74,163,29,25,29,268,20*71
$GLGSV,1,1,01,88,56,154,20*55
$GNGSA,A,3,02,06,12,14,15,17,24,25,,,,,1.4,0.8,1.2*23
$GNGSA,A,3,88,,,,,,,,,,,,1.4,0.8,1.2*22
$GPRMC,071256.000,A,4909.910973,N,02016.674497,E,1.7,207.5,120815,,,A*6B
$GPGGA,071256.000,4909.910973,N,02016.674497,E,1,09,0.8,869.8,M,41.8,M,,*53
$GPGSA,A,3,02,06,12,14,15,17,24,25,,,,,1.6,0.8,1.3*3E
$GPGSV,2,1,08,02,19,133,22,06,27,096,18,12,69,286,27,14,29,306,24*74
$GPGSV,2,2,08,15,08,190,28,17,23,047,21,24,74,163,29,25,29,268,20*70
$GLGSV,1,1,01,88,56,154,20*55
$GNGSA,A,3,02,06,12,14,15,17,24,25,,,,,1.4,0.8,1.2*23
$GNGSA,A,3,88,,,,,,,,,,,,1.4,0.8,1.2*22
$GPRMC,071257.000,A,4909.910211,N,02016.674539,E,1.3,199.8,120815,,,A*6D
$GPGGA,071257.000,4909.910211,N,02016.674539,E,1,09,0.8,869.6,M,41.8,M,,*56
$GPGSA,A,3,02,06,12,14,15,17,24,25,,,,,1.6,0.8,1.3*3E
$GPGSV,2,1,08,02,19,133,24,06,27,096,20,12,69,286,27,14,29,306,23*7E
$GPGSV,2,2,08,15,08,190,28,17,23,047,21,24,74,163,29,25,29,268,21*71
$GLGSV,1,1,01,88,56,154,21*54
$GNGSA,A,3,02,06,12,14,15,17,24,25,,,,,1.4,0.8,1.2*23
$GNGSA,A,3,88,,,,,,,,,,,,1.4,0.8,1.2*22
$GPRMC,071258.000,A,4909.909240,N,02016.674187,E,1.6,193.1,120815,,,A*69
$GPGGA,071258.000,4909.909240,N,02016.674187,E,1,09,0.8,869.2,M,41.8,M,,*50
$GPGSA,A,3,02,06,12,14,15,17,24,25,,,,,1.6,0.8,1.3*3E
$GPGSV,2,1,08,02,19,133,24,06,27,096,20,12,69,286,27,14,29,306,23*7E
$GPGSV,2,2,08,15,08,190,28,17,23,047,21,24,74,163,29,25,29,268,21*71
$GLGSV,1,1,01,88,56,154,21*54
$GNGSA,A,3,02,06,12,14,15,17,24,25,,,,,1.4,0.8,1.2*23
$GNGSA,A,3,88,,,,,,,,,,,,1.4,0.8,1.2*22
$GPRMC,071259.000,A,4909.907458,N,02016.673273,E,1.6,188.9,120815,,,A*64
$GPGGA,071259.000,4909.907458,N,02016.673273,E,1,09,0.8,868.1,M,41.8,M,,*5D
$GPGSA,A,3,02,06,12,14,15,17,24,25,,,,,1.6,0.8,1.3*3E
$GPGSV,2,1,08,02,19,133,25,06,27,096,21,12,69,286,27,14,29,306,22*7F
$GPGSV,2,2,08,15,08,190,27,17,23,047,21,24,74,163,29,25,29,268,28*77
$GLGSV,1,1,01,88,56,154,21*54
$GNGSA,A,3,02,06,12,14,15,17,24,25,,,,,1.4,0.8,1.2*23
$GNGSA,A,3,88,,,,,,,,,,,,1.4,0.8,1.2*22
$GPRMC,071300.000,A,4909.906216,N,02016.672385,E,1.3,191.4,120815,,,A*6D
$GPGGA,071300.000,4909.906216,N,02016.672385,E,1,09,0.8,867.6,M,41.8,M,,*5C
$GPGSA,A,3,02,06,12,14,15,17,24,25,,,,,1.6,0.8,1.3*3E
$GPGSV,2,1,08,02,19,133,24,06,27,096,21,12,69,286,23,14,29,306,22*7A
$GPGSV,2,2,08,15,08,190,27,17,23,047,21,24,74,163,29,25,29,268,28*77
$GLGSV,1,1,01,88,56,154,21*54
$GNGSA,A,3,02,06,12,14,15,17,24,25,,,,,1.4,0.8,1.2*23
$GNGSA,A,3,88,,,,,,,,,,,,1.4,0.8,1.2*22
$GPRMC,071301.000,A,4909.905550,N,02016.671852,E,1.2,198.0,120815,,,A*64
$GPGGA,071301.000,4909.905550,N,02016.671852,E,1,09,0.8,867.6,M,41.8,M,,*59
$GPGSA,A,3,02,06,12,14,15,17,24,25,,,,,1.6,0.8,1.3*3E
$GPGSV,2,1,08,02,19,133,24,06,27,096,21,12,69,286,24,14,29,306,22*7D
$GPGSV,2,2,08,15,08,190,26,17,23,047,20,24,74,163,29,25,29,268,27*78
$GLGSV,1,1,01,88,56,154,21*54
$GNGSA,A,3,02,06,12,14,15,17,24,25,,,,,1.4,0.8,1.2*23
$GNGSA,A,3,88,,,,,,,,,,,,1.4,0.8,1.2*22
$GPRMC,071302.000,A,4909.905196,N,02016.671072,E,1.8,213.1,120815,,,A*68
$GPGGA,071302.000,4909.905196,N,02016.671072,E,1,09,0.8,867.4,M,41.8,M,,*5C
$GPGSA,A,3,06,12,14,15,17,24,25,,,,,,1.6,0.8,1.3*3C
$GPGSV,2,1,08,02,19,133,24,06,27,096,21,12,69,286,30,14,29,306,22*78
$GPGSV,2,2,08,15,08,190,20,17,23,047,20,24,74,163,29,25,29,268,28*71
$GLGSV,1,1,01,88,56,154,20*55
$GNGSA,A,3,06,12,14,15,17,24,25,,,,,,1.6,0.8,1.2*23
$GNGSA,A,3,88,,,,,,,,,,,,1.6,0.8,1.2*20
$GPRMC,071303.000,A,4909.904782,N,02016.670484,E,1.7,220.3,120815,,,A*6A
$GPGGA,071303.000,4909.904782,N,02016.670484,E,1,08,0.8,867.2,M,41.8,M,,*54
$GPGSA,A,3,02,06,12,14,15,17,24,25,,,,,1.6,0.8,1.3*3E
$GPGSV,2,1,08,02,19,133,24,06,27,096,29,12,69,286,29,14,29,306,22*78
$GPGSV,2,2,08,15,08,190,22,17,23,047,20,24,74,163,29,25,29,268,29*72
$GLGSV,1,1,01,88,56,154,20*55
$GNGSA,A,3,02,06,12,14,15,17,24,25,,,,,1.4,0.8,1.2*23
$GNGSA,A,3,88,,,,,,,,,,,,1.4,0.8,1.2*22
$GPRMC,071304.000,A,4909.904212,N,02016.670177,E,1.9,210.6,120815,,,A*60
$GPGGA,071304.000,4909.904212,N,02016.670177,E,1,09,0.8,867.2,M,41.8,M,,*57
$GPGSA,A,3,02,06,12,14,15,17,24,25,,,,,1.6,0.8,1.3*3E
$GPGSV,2,1,08,02,19,133,24,06,27,096,26,12,69,286,29,14,29,306,22*77
$GPGSV,2,2,08,15,08,190,28,17,23,047,20,24,74,163,28,25,29,268,28*78
$GLGSV,1,1,01,88,56,154,20*55
$GNGSA,A,3,02,06,12,14,15,17,24,25,,,,,1.4,0.8,1.2*23
$GNGSA,A,3,88,,,,,,,,,,,,1.4,0.8,1.2*22
$GPRMC,071305.000,A,4909.903510,N,02016.669878,E,2.2,203.4,120815,,,A*65
$GPGGA,071305.000,4909.903510,N,02016.669878,E,1,09,0.8,867.1,M,41.8,M,,*59
$GPGSA,A,3,02,06,12,14,15,17,24,25,,,,,1.6,0.8,1.3*3E
$GPGSV,2,1,08,02,19,133,24,06,27,096,25,12,69,286,29,14,29,306,22*74
$GPGSV,2,2,08,15,08,190,28,17,23,047,20,24,74,163,28,25,29,268,28*78
$GLGSV,1,1,01,88,56,154,20*55
$GNGSA,A,3,02,06,12,14,15,17,24,25,,,,,1.4,0.8,1.2*23
$GNGSA,A,3,88,,,,,,,,,,,,1.4,0.8,1.2*22
$GPRMC,071306.000,A,4909.902790,N,02016.669824,E,2.3,200.6,120815,,,A*64
$GPGGA,071306.000,4909.902790,N,02016.669824,E,1,09,0.8,866.8,M,41.8,M,,*50
$GPGSA,A,3,02,06,12,14,15,17,24,25,,,,,1.6,0.8,1.3*3E
$GPGSV,2,1,08,02,19,133,24,06,27,096,25,12,69,286,29,14,29,306,22*74
$GPGSV,2,2,08,15,08,190,28,17,23,047,20,24,74,163,22,25,29,268,28*72
$GLGSV,1,1,01,88,56,154,20*55
$GNGSA,A,3,02,06,12,14,15,17,24,25,,,,,1.4,0.8,1.2*23
$GNGSA,A,3,88,,,,,,,,,,,,1.4,0.8,1.2*22
$GPRMC,071307.000,A,4909.902130,N,02016.669355,E,2.3,201.9,120815,,,A*6A
$GPGGA,071307.000,4909.902130,N,02016.669355,E,1,09,0.8,866.4,M,41.8,M,,*5C
$GPGSA,A,3,02,06,12,14,15,17,24,25,,,,,1.6,0.8,1.3*3E
$GPGSV,2,1,08,02,19,133,24,06,27,096,24,12,69,286,29,14,29,306,21*76
$GPGSV,2,2,08,15,08,190,28,17,23,047,20,24,74,163,22,25,29,268,27*7D
$GLGSV,1,1,01,88,56,154,20*55
$GNGSA,A,3,02,06,12,14,15,17,24,25,,,,,1.4,0.8,1.2*23
$GNGSA,A,3,88,,,,,,,,,,,,1.4,0.8,1.2*22
$GPRMC,071308.000,A,4909.900972,N,02016.668672,E,1.9,200.7,120815,,,A*6E
$GPGGA,071308.000,4909.900972,N,02016.668672,E,1,09,0.8,866.1,M,41.8,M,,*5B
$GPGSA,A,3,02,06,12,14,15,17,24,25,,,,,1.6,0.8,1.3*3E
$GPGSV,2,1,08,02,19,133,23,06,27,096,24,12,69,286,20,14,29,306,21*78
$GPGSV,2,2,08,15,08,190,28,17,23,047,20,24,74,163,21,25,29,268,25*7C
$GLGSV,1,1,01,88,56,154,20*55
$GNGSA,A,3,02,06,12,14,15,17,24,25,,,,,1.4,0.8,1.2*23
$GNGSA,A,3,88,,,,,,,,,,,,1.4,0.8,1.2*22
$GPRMC,071309.000,A,4909.899880,N,02016.667982,E,2.0,198.7,120815,,,A*65
$GPGGA,071309.000,4909.899880,N,02016.667982,E,1,09,0.8,865.7,M,41.8,M,,*5D
$GPGSA,A,3,06,12,14,15,17,24,25,,,,,,1.6,0.8,1.3*3C
$GPGSV,2,1,08,02,19,133,23,06,27,096,24,12,69,286,23,14,29,306,21*7B
$GPGSV,2,2,08,15,08,190,28,17,23,047,20,24,74,163,21,25,29,268,26*7F
$GLGSV,1,1,01,88,56,154,20*55
$GNGSA,A,3,06,12,14,15,17,24,25,,,,,,1.6,0.8,1.2*23
$GNGSA,A,3,88,,,,,,,,,,,,1.6,0.8,1.2*20
$GPRMC,071310.000,A,4909.898932,N,02016.667388,E,2.7,199.8,120815,,,A*6D
$GPGGA,071310.000,4909.898932,N,02016.667388,E,1,08,0.8,865.5,M,41.8,M,,*5F
$GPGSA,A,3,02,06,12,14,15,17,24,25,,,,,1.6,0.8,1.3*3E
$GPGSV,2,1,08,02,19,133,23,06,27,096,24,12,69,286,24,14,29,306,22*7F
$GPGSV,2,2,08,15,08,190,28,17,23,047,20,24,74,163,21,25,29,268,27*7E
$GLGSV,1,1,01,88,56,154,20*55
$GNGSA,A,3,02,06,12,14,15,17,24,25,,,,,1.4,0.8,1.2*23
$GNGSA,A,3,88,,,,,,,,,,,,1.4,0.8,1.2*22
$GPRMC,071311.000,A,4909.898392,N,02016.666872,E,2.2,204.9,120815,,,A*60
$GPGGA,071311.000,4909.898392,N,02016.666872,E,1,09,0.8,865.5,M,41.8,M,,*50
$GPGSA,A,3,02,06,12,14,15,17,24,25,,,,,1.6,0.8,1.3*3E
$GPGSV,2,1,08,02,19,133,23,06,27,096,25,12,69,286,24,14,29,306,22*7E
$GPGSV,2,2,08,15,08,190,28,17,23,047,20,24,74,163,30,25,29,268,27*7E
$GLGSV,1,1,01,88,56,154,20*55
$GNGSA,A,3,02,06,12,14,15,17,24,25,,,,,1.4,0.8,1.2*23
$GNGSA,A,3,88,,,,,,,,,,,,1.4,0.8,1.2*22
$GPRMC,071312.000,A,4909.897624,N,02016.666531,E,2.3,206.8,120815,,,A*6C
$GPGGA,071312.000,4909.897624,N,02016.666531,E,1,09,0.8,865.3,M,41.8,M,,*58
$GPGSA,A,3,02,06,12,14,15,17,24,25,,,,,1.6,0.8,1.3*3E
$GPGSV,2,1,08,02,19,133,23,06,27,096,25,12,69,286,32,14,29,306,22*79
$GPGSV,2,2,08,15,08,190,28,17,23,047,21,24,74,163,26,25,29,268,27*78
$GLGSV,1,1,01,88,56,154,20*55
$GNGSA,A,3,02,06,12,14,15,17,24,25,,,,,1.4,0.8,1.2*23
$GNGSA,A,3,88,,,,,,,,,,,,1.4,0.8,1.2*22
$GPRMC,071313.000,A,4909.896885,N,02016.666307,E,2.2,204.5,120815,,,A*64
$GPGGA,071313.000,4909.896885,N,02016.666307,E,1,09,0.8,865.0,M,41.8,M,,*5D
$GPGSA,A,3,06,12,14,15,17,24,25,,,,,,1.6,0.8,1.3*3C
$GPGSV,2,1,08,02,19,133,13,06,27,096,25,12,69,286,31,14,29,306,22*79
$GPGSV,2,2,08,15,08,190,28,17,23,047,20,24,74,163,26,25,29,268,27*79
$GLGSV,1,1,01,88,56,154,20*55
$GNGSA,A,3,06,12,14,15,17,24,25,,,,,,1.6,0.8,1.2*23
$GNGSA,A,3,88,,,,,,,,,,,,1.6,0.8,1.2*20
$GPRMC,071314.000,A,4909.896262,N,02016.665892,E,2.1,205.8,120815,,,A*6B
$GPGGA,071314.000,4909.896262,N,02016.665892,E,1,08,0.8,864.8,M,41.8,M,,*55
$GPGSA,A,3,06,12,14,15,17,24,25,,,,,,1.6,0.8,1.3*3C
$GPGSV,2,1,08,02,19,133,20,06,27,096,25,12,69,286,31,14,29,306,23*78
$GPGSV,2,2,08,15,08,190,29,17,23,047,20,24,74,163,27,25,29,268,27*79
$GLGSV,1,1,01,88,56,154,20*55
$GNGSA,A,3,06,12,14,15,17,24,25,,,,,,1.6,0.8,1.2*23
$GNGSA,A,3,88,,,,,,,,,,,,1.6,0.8,1.2*20
$GPRMC,071315.000,A,4909.895518,N,02016.665702,E,2.3,202.7,120815,,,A*6F
$GPGGA,071315.000,4909.895518,N,02016.665702,E,1,08,0.8,864.4,M,41.8,M,,*57
$GPGSA,A,3,06,12,14,15,17,24,25,,,,,,1.6,0.8,1.3*3C
$GPGSV,2,1,08,02,19,133,21,06,27,096,25,12,69,286,30,14,29,306,27*7C
$GPGSV,2,2,08,15,08,190,29,17,23,047,20,24,74,163,27,25,29,268,27*79
$GLGSV,1,1,01,88,56,154,20*55
$GNGSA,A,3,06,12,14,15,17,24,25,,,,,,1.6,0.8,1.2*23
$GNGSA,A,3,88,,,,,,,,,,,,1.6,0.8,1.2*20
$GPRMC,071316.000,A,4909.894888,N,02016.665406,E,2.1,201.3,120815,,,A*6B
$GPGGA,071316.000,4909.894888,N,02016.665406,E,1,08,0.8,864.2,M,41.8,M,,*50
$GPGSA,A,3,02,06,14,15,17,24,25,,,,,,1.7,0.8,1.4*3B
$GPGSV,2,1,08,02,19,133,22,06,27,096,25,12,69,286,29,14,29,306,28*78
$GPGSV,2,2,08,15,08,190,29,17,23,047,20,24,74,163,28,25,29,268,26*77
$GLGSV,1,1,01,88,56,154,20*55
$GNGSA,A,3,02,06,14,15,17,24,25,,,,,,1.6,0.8,1.4*24
$GNGSA,A,3,88,,,,,,,,,,,,1.6,0.8,1.4*26
$GPRMC,071317.000,A,4909.894312,N,02016.664830,E,2.2,203.5,120815,,,A*6D
$GPGGA,071317.000,4909.894312,N,02016.664830,E,1,08,0.8,864.1,M,41.8,M,,*52
$GPGSA,A,3,06,12,14,15,17,24,25,,,,,,1.6,0.8,1.3*3C
$GPGSV,2,1,08,02,19,133,23,06,27,096,25,12,69,286,29,14,29,306,29*78
$GPGSV,2,2,08,15,08,190,29,17,23,047,20,24,74,163,28,25,29,268,24*75
$GLGSV,1,1,01,88,56,154,20*55
$GNGSA,A,3,06,12,14,15,17,24,25,,,,,,1.6,0.8,1.2*23
$GNGSA,A,3,88,,,,,,,,,,,,1.6,0.8,1.2*20
$GPRMC,071318.000,A,4909.893783,N,02016.664171,E,2.2,205.3,120815,,,A*65
$GPGGA,071318.000,4909.893783,N,02016.664171,E,1,08,0.8,863.7,M,41.8,M,,*5B
$GPGSA,A,3,02,06,12,14,15,17,24,25,,,,,1.6,0.8,1.3*3E
$GPGSV,2,1,08,02,19,133,23,06,27,096,25,12,69,286,27,14,29,306,30*7E
$GPGSV,2,2,08,15,08,190,29,17,23,047,20,24,74,163,29,25,29,268,25*75
$GLGSV,1,1,01,88,56,154,20*55
$GNGSA,A,3,02,06,12,14,15,17,24,25,,,,,1.4,0.8,1.2*23
$GNGSA,A,3,88,,,,,,,,,,,,1.4,0.8,1.2*22
$GPRMC,071319.000,A,4909.893351,N,02016.663636,E,1.9,201.9,120815,,,A*6A
$GPGGA,071319.000,4909.893351,N,02016.663636,E,1,09,0.8,863.1,M,41.8,M,,*55
$GPGSA,A,3,02,06,12,14,15,17,24,25,,,,,1.6,0.8,1.3*3E
$GPGSV,2,1,08,02,19,133,23,06,27,096,25,12,69,286,28,14,29,306,29*79
$GPGSV,2,2,08,15,08,190,29,17,23,047,20,24,74,163,29,25,29,268,25*75
$GLGSV,1,1,01,88,56,154,20*55
$GNGSA,A,3,02,06,12,14,15,17,24,25,,,,,1.4,0.8,1.2*23
$GNGSA,A,3,88,,,,,,,,,,,,1.4,0.8,1.2*22
$GPRMC,071320.000,A,4909.892698,N,02016.663230,E,2.1,198.2,120815,,,A*60
$GPGGA,071320.000,4909.892698,N,02016.663230,E,1,09,0.8,862.9,M,41.8,M,,*55
$GPGSA,A,3,02,12,14,15,17,24,25,,,,,,1.6,0.8,1.3*38
$GPGSV,2,1,08,02,19,133,22,06,27,096,25,12,69,286,28,14,29,306,29*78
$GPGSV,2,2,08,15,08,190,29,17,23,047,20,24,74,163,29,25,29,268,25*75
$GLGSV,1,1,01,88,56,154,20*55
$GNGSA,A,3,02,12,14,15,17,24,25,,,,,,1.6,0.8,1.2*27
$GNGSA,A,3,88,,,,,,,,,,,,1.6,0.8,1.2*20
$GPRMC,071321.000,A,4909.892104,N,02016.662851,E,2.2,201.3,120815,,,A*6E
$GPGGA,071321.000,4909.892104,N,02016.662851,E,1,08,0.8,862.7,M,41.8,M,,*55
$GPGSA,A,3,02,06,12,14,15,17,24,25,,,,,1.6,0.8,1.3*3E
$GPGSV,2,1,08,02,19,133,22,06,27,096,25,12,69,286,28,14,29,306,28*79
$GPGSV,2,2,08,15,08,190,28,17,23,047,20,24,74,163,29,25,29,268,25*74
$GLGSV,1,1,01,88,56,154,20*55
$GNGSA,A,3,02,06,12,14,15,17,24,25,,,,,1.4,0.8,1.2*23
$GNGSA,A,3,88,,,,,,,,,,,,1.4,0.8,1.2*22
$GPRMC,071322.000,A,4909.891533,N,02016.662246,E,2.2,209.7,120815,,,A*6E
$GPGGA,071322.000,4909.891533,N,02016.662246,E,1,09,0.8,862.6,M,41.8,M,,*59
$GPGSA,A,3,02,06,12,14,15,17,24,25,,,,,1.6,0.8,1.3*3E
$GPGSV,2,1,08,02,19,133,22,06,27,096,25,12,69,286,28,14,29,306,21*70
$GPGSV,2,2,08,15,08,190,20,17,23,047,20,24,74,163,29,25,29,268,25*7C
$GLGSV,1,1,01,88,56,154,20*55
$GNGSA,A,3,02,06,12,14,15,17,24,25,,,,,1.4,0.8,1.2*23
$GNGSA,A,3,88,,,,,,,,,,,,1.4,0.8,1.2*22
$GPRMC,071323.000,A,4909.891084,N,02016.662107,E,1.6,208.8,120815,,,A*69
$GPGGA,071323.000,4909.891084,N,02016.662107,E,1,09,0.8,862.8,M,41.8,M,,*59
$GPGSA,A,3,02,06,12,14,15,17,24,25,,,,,1.6,0.8,1.3*3E
$GPGSV,2,1,08,02,19,133,22,06,27,096,25,12,69,286,28,14,29,306,21*70
$GPGSV,2,2,08,15,08,190,22,17,23,047,20,24,74,163,29,25,29,268,25*7E
$GLGSV,1,1,01,88,56,154,20*55
$GNGSA,A,3,02,06,12,14,15,17,24,25,,,,,1.4,0.8,1.2*23
$GNGSA,A,3,88,,,,,,,,,,,,1.4,0.8,1.2*22
$GPRMC,071324.000,A,4909.890520,N,02016.662059,E,1.7,202.4,120815,,,A*69
$GPGGA,071324.000,4909.890520,N,02016.662059,E,1,09,0.8,862.8,M,41.8,M,,*5E
$GPGSA,A,3,02,06,12,14,15,17,24,,,,,,1.6,0.8,1.3*39
$GPGSV,2,1,08,02,19,133,23,06,27,096,25,12,69,286,28,14,29,306,22*72
$GPGSV,2,2,08,15,08,190,22,17,23,047,21,24,74,163,29,25,29,268,24*7E
$GLGSV,1,1,01,88,56,154,20*55
$GNGSA,A,3,02,06,12,14,15,17,24,,,,,,1.6,0.8,1.2*26
$GNGSA,A,3,88,,,,,,,,,,,,1.6,0.8,1.2*20
$GPRMC,071325.000,A,4909.890142,N,02016.661891,E,1.4,196.1,120815,,,A*6F
$GPGGA,071325.000,4909.890142,N,02016.661891,E,1,08,0.8,862.9,M,41.8,M,,*50
$GPGSA,A,3,02,06,12,14,15,17,24,25,,,,,1.6,0.8,1.3*3E
$GPGSV,2,1,08,02,19,133,23,06,27,096,25,12,69,286,28,14,29,306,21*71
$GPGSV,2,2,08,15,08,190,22,17,23,047,21,24,74,163,29,25,29,268,18*71
$GLGSV,1,1,01,88,56,154,21*54
$GNGSA,A,3,02,06,12,14,15,17,24,25,,,,,1.4,0.8,1.2*23
$GNGSA,A,3,88,,,,,,,,,,,,1.4,0.8,1.2*22
$GPRMC,071326.000,A,4909.889716,N,02016.661825,E,1.4,187.5,120815,,,A*68
$GPGGA,071326.000,4909.889716,N,02016.661825,E,1,09,0.8,863.1,M,41.8,M,,*5B
$GPGSA,A,3,02,06,12,14,15,17,24,25,,,,,1.6,0.8,1.3*3E
$GPGSV,2,1,08,02,19,133,23,06,27,096,25,12,69,286,28,14,29,306,21*71
$GPGSV,2,2,08,15,08,190,24,17,23,047,20,24,74,163,29,25,29,268,18*76
$GLGSV,1,1,01,88,56,154,21*54
$GNGSA,A,3,02,06,12,14,15,17,24,25,,,,,1.4,0.8,1.2*23
$GNGSA,A,3,88,,,,,,,,,,,,1.4,0.8,1.2*22
$GPRMC,071327.000,A,4909.889278,N,02016.661692,E,1.5,185.0,120815,,,A*60
$GPGGA,071327.000,4909.889278,N,02016.661692,E,1,09,0.8,863.2,M,41.8,M,,*56
$GPGSA,A,3,02,06,12,14,15,17,24,25,,,,,1.6,0.8,1.3*3E
$GPGSV,2,1,08,02,19,133,23,06,27,096,25,12,69,286,27,14,29,306,21*7E
$GPGSV,2,2,08,15,08,190,24,17,23,047,20,24,74,163,29,25,29,268,19*77
$GLGSV,1,1,01,88,56,154,20*55
$GNGSA,A,3,02,06,12,14,15,17,24,25,,,,,1.4,0.8,1.2*23
$GNGSA,A,3,88,,,,,,,,,,,,1.4,0.8,1.2*22
$GPRMC,071328.000,A,4909.889032,N,02016.661172,E,1.5,194.9,120815,,,A*63
$GPGGA,071328.000,4909.889032,N,02016.661172,E,1,09,0.8,863.2,M,41.8,M,,*5C
$GPGSA,A,3,02,06,12,14,15,17,24,25,,,,,1.6,0.8,1.3*3E
$GPGSV,2,1,08,02,19,133,23,06,27,096,26,12,69,286,22,14,29,306,21*78
$GPGSV,2,2,08,15,08,190,24,17,23,047,21,24,74,163,29,25,29,268,19*76
$GLGSV,1,1,01,88,56,154,20*55
$GNGSA,A,3,02,06,12,14,15,17,24,25,,,,,1.4,0.8,1.2*23
$GNGSA,A,3,88,,,,,,,,,,,,1.4,0.8,1.2*22
$GPRMC,071329.000,A,4909.888677,N,02016.660379,E,2.1,212.8,120815,,,A*67
$GPGGA,071329.000,4909.888677,N,02016.660379,E,1,09,0.8,863.3,M,41.8,M,,*52
$GPGSA,A,3,06,12,14,15,17,24,25,,,,,,1.6,0.8,1.3*3C
$GPGSV,2,1,08,02,19,133,23,06,27,096,26,12,69,286,23,14,29,306,21*79
$GPGSV,2,2,08,15,08,190,24,17,23,047,21,24,74,163,29,25,29,268,19*76
$GLGSV,1,1,01,88,56,154,21*54
$GNGSA,A,3,06,12,14,15,17,24,25,,,,,,1.6,0.8,1.2*23
$GNGSA,A,3,88,,,,,,,,,,,,1.6,0.8,1.2*20
$GPRMC,071330.000,A,4909.888378,N,02016.659888,E,1.8,221.5,120815,,,A*6D
$GPGGA,071330.000,4909.888378,N,02016.659888,E,1,08,0.8,863.3,M,41.8,M,,*5E
$GPGSA,A,3,02,06,12,14,15,17,24,25,,,,,1.6,0.8,1.3*3E
$GPGSV,2,1,08,02,19,133,23,06,27,096,26,12,69,286,22,14,29,306,21*78
$GPGSV,2,2,08,15,08,190,23,17,23,047,21,24,74,163,29,25,29,268,25*7E
$GLGSV,1,1,01,88,56,154,21*54
$GNGSA,A,3,02,06,12,14,15,17,24,25,,,,,1.4,0.8,1.2*23
$GNGSA,A,3,88,,,,,,,,,,,,1.4,0.8,1.2*22
$GPRMC,071331.000,A,4909.887976,N,02016.659078,E,2.1,226.7,120815,,,A*6F
$GPGGA,071331.000,4909.887976,N,02016.659078,E,1,09,0.8,863.3,M,41.8,M,,*52
$GPGSA,A,3,02,06,12,14,15,17,24,25,,,,,1.6,0.8,1.3*3E
$GPGSV,2,1,08,02,19,133,23,06,27,096,26,12,69,286,22,14,29,306,21*78
$GPGSV,2,2,08,15,08,190,24,17,23,047,21,24,74,163,29,25,29,268,22*7E
$GLGSV,1,1,01,88,56,154,21*54
$GNGSA,A,3,02,06,12,14,15,17,24,25,,,,,1.4,0.8,1.2*23
$GNGSA,A,3,88,,,,,,,,,,,,1.4,0.8,1.2*22
$GPRMC,071332.000,A,4909.887729,N,02016.658550,E,1.7,233.2,120815,,,A*62
$GPGGA,071332.000,4909.887729,N,02016.658550,E,1,09,0.8,863.3,M,41.8,M,,*5B
$GPGSA,A,3,02,06,12,14,15,17,24,25,,,,,1.6,0.8,1.3*3E
$GPGSV,2,1,08,02,19,133,22,06,27,096,25,12,69,286,22,14,29,306,20*7B
$GPGSV,2,2,08,15,08,190,24,17,23,047,21,24,74,163,29,25,29,268,23*7F
$GLGSV,1,1,01,88,56,154,21*54
$GNGSA,A,3,02,06,12,14,15,17,24,25,,,,,1.4,0.8,1.2*23
$GNGSA,A,3,88,,,,,,,,,,,,1.4,0.8,1.2*22
$GPRMC,071333.000,A,4909.887400,N,02016.658472,E,1.2,232.1,120815,,,A*6D
$GPGGA,071333.000,4909.887400,N,02016.658472,E,1,09,0.8,863.3,M,41.8,M,,*53
$GPGSA,A,3,02,06,12,14,15,17,24,25,,,,,1.6,0.8,1.3*3E
$GPGSV,2,1,08,02,19,133,22,06,27,096,20,12,69,286,22,14,29,306,20*7E
$GPGSV,2,2,08,15,08,190,24,17,23,047,21,24,74,163,28,25,29,268,24*79
$GLGSV,1,1,01,88,56,154,21*54
$GNGSA,A,3,02,06,12,14,15,17,24,25,,,,,1.4,0.8,1.2*23
$GNGSA,A,3,88,,,,,,,,,,,,1.4,0.8,1.2*22
$GPRMC,071334.000,A,4909.886998,N,02016.658094,E,1.4,228.4,120815,,,A*63
$GPGGA,071334.000,4909.886998,N,02016.658094,E,1,09,0.8,863.4,M,41.8,M,,*52
$GPGSA,A,3,02,06,12,14,15,17,24,25,,,,,1.6,0.8,1.3*3E
$GPGSV,2,1,08,02,19,133,22,06,27,096,22,12,69,286,22,14,29,306,24*78
$GPGSV,2,2,08,15,08,190,24,17,23,047,21,24,74,163,29,25,29,268,28*74
$GLGSV,1,1,01,88,56,154,21*54
$GNGSA,A,3,02,06,12,14,15,17,24,25,,,,,1.4,0.8,1.2*23
$GNGSA,A,3,88,,,,,,,,,,,,1.4,0.8,1.2*22
$GPRMC,071335.000,A,4909.886596,N,02016.657764,E,1.4,215.8,120815,,,A*65
$GPGGA,071335.000,4909.886596,N,02016.657764,E,1,09,0.8,863.3,M,41.8,M,,*51
$GPGSA,A,3,02,12,14,15,17,24,25,,,,,,1.6,0.8,1.3*38
$GPGSV,2,1,08,02,19,133,23,06,27,096,22,12,69,286,21,14,29,306,23*7D
$GPGSV,2,2,08,15,08,190,23,17,23,047,21,24,74,163,29,25,29,268,32*78
$GLGSV,1,1,01,88,56,154,21*54
$GNGSA,A,3,02,12,14,15,17,24,25,,,,,,1.4,0.8,1.2*25
$GNGSA,A,3,88,,,,,,,,,,,,1.4,0.8,1.2*22
$GPRMC,071336.000,A,4909.886020,N,02016.657675,E,1.8,208.2,120815,,,A*65
$GPGGA,071336.000,4909.886020,N,02016.657675,E,1,08,0.8,863.4,M,41.8,M,,*5D
$GPGSA,A,3,02,06,12,14,15,17,24,25,,,,,1.6,0.8,1.3*3E
$GPGSV,2,1,08,02,19,133,23,06,27,096,22,12,69,286,23,14,29,306,23*7F
$GPGSV,2,2,08,15,08,190,23,17,23,047,21,24,74,163,29,25,29,268,31*7B
$GLGSV,1,1,01,88,56,154,21*54
$GNGSA,A,3,02,06,12,14,15,17,24,25,,,,,1.4,0.8,1.2*23
$GNGSA,A,3,88,,,,,,,,,,,,1.4,0.8,1.2*22
$GPRMC,071337.000,A,4909.885720,N,02016.657132,E,1.7,209.5,120815,,,A*6D
$GPGGA,071337.000,4909.885720,N,02016.657132,E,1,09,0.8,863.5,M,41.8,M,,*5C
$GPGSA,A,3,02,06,12,14,15,17,24,25,,,,,1.6,0.8,1.3*3E
$GPGSV,2,1,08,02,19,133,23,06,27,096,22,12,69,286,23,14,29,306,23*7F
$GPGSV,2,2,08,15,08,190,20,17,23,047,21,24,74,163,29,25,29,268,31*78
$GLGSV,1,1,01,88,56,154,21*54
$GNGSA,A,3,02,06,12,14,15,17,24,25,,,,,1.4,0.8,1.2*23
$GNGSA,A,3,88,,,,,,,,,,,,1.4,0.8,1.2*22
$GPRMC,071338.000,A,4909.885042,N,02016.656732,E,2.3,204.7,120815,,,A*6E
$GPGGA,071338.000,4909.885042,N,02016.656732,E,1,09,0.8,863.5,M,41.8,M,,*57
$GPGSA,A,3,02,06,12,14,15,17,24,,,,,,1.6,0.8,1.3*39
$GPGSV,2,1,08,02,19,133,23,06,27,096,22,12,69,286,23,14,29,306,23*7F
$GPGSV,2,2,08,15,08,190,22,17,23,047,21,24,74,163,29,25,29,268,26*7C
$GLGSV,1,1,01,88,56,154,21*54
$GNGSA,A,3,02,06,12,14,15,17,24,,,,,,1.6,0.8,1.2*26
$GNGSA,A,3,88,,,,,,,,,,,,1.6,0.8,1.2*20
$GPRMC,071339.000,A,4909.884604,N,02016.656444,E,1.8,201.0,120815,,,A*62
$GPGGA,071339.000,4909.884604,N,02016.656444,E,1,08,0.8,863.4,M,41.8,M,,*51
$GPGSA,A,3,02,06,12,14,15,17,24,25,,,,,1.6,0.8,1.3*3E
$GPGSV,2,1,08,02,19,133,23,06,27,096,22,12,69,286,23,14,29,306,23*7F
$GPGSV,2,2,08,15,08,190,22,17,23,047,21,24,74,163,28,25,29,268,26*7D
$GLGSV,1,1,01,88,56,154,21*54
$GNGSA,A,3,02,06,12,14,15,17,24,25,,,,,1.4,0.8,1.2*23
$GNGSA,A,3,88,,,,,,,,,,,,1.4,0.8,1.2*22
$GPRMC,071340.000,A,4909.883950,N,02016.655958,E,2.2,198.0,120815,,,A*6C
$GPGGA,071340.000,4909.883950,N,02016.655958,E,1,09,0.8,863.3,M,41.8,M,,*53
$GPGSA,A,3,02,06,12,14,17,24,25,,,,,,2.0,1.0,1.6*33
$GPGSV,2,1,08,02,19,133,14,06,27,096,22,12,69,286,23,14,29,306,23*7B
$GPGSV,2,2,08,15,08,190,04,17,23,047,21,24,74,163,20,25,29,268,25*72
$GLGSV,1,1,01,88,56,154,20*55
$GNGSA,A,3,02,06,12,14,17,24,25,,,,,,1.8,1.0,1.6*26
$GNGSA,A,3,88,,,,,,,,,,,,1.8,1.0,1.6*23
$GPRMC,071341.000,A,4909.883452,N,02016.655681,E,2.0,194.5,120815,,,A*62
$GPGGA,071341.000,4909.883452,N,02016.655681,E,1,08,1.0,863.2,M,41.8,M,,*5F
$GPGSA,A,3,06,12,14,15,17,24,25,,,,,,1.6,0.8,1.3*3C
$GPGSV,2,1,08,02,19,133,14,06,27,096,22,12,69,286,23,14,29,306,23*7B
$GPGSV,2,2,08,15,08,190,17,17,23,047,21,24,74,163,21,25,29,268,24*70
$GLGSV,1,1,01,88,56,154,20*55
$GNGSA,A,3,06,12,14,15,17,24,25,,,,,,1.6,0.8,1.2*23
$GNGSA,A,3,88,,,,,,,,,,,,1.6,0.8,1.2*20
$GPRMC,071342.000,A,4909.882749,N,02016.655508,E,2.3,194.5,120815,,,A*68
$GPGGA,071342.000,4909.882749,N,02016.655508,E,1,08,0.8,863.1,M,41.8,M,,*5C
$GPGSA,A,3,06,12,14,15,17,24,25,,,,,,1.6,0.8,1.3*3C
$GPGSV,2,1,08,02,19,133,06,06,27,096,22,12,69,286,23,14,29,306,20*7B
$GPGSV,2,2,08,15,08,190,18,17,23,047,21,24,74,163,21,25,29,268,23*78
$GLGSV,1,1,01,88,56,154,20*55
$GNGSA,A,3,06,12,14,15,17,24,25,,,,,,1.6,0.8,1.2*23
$GNGSA,A,3,88,,,,,,,,,,,,1.6,0.8,1.2*20
$GPRMC,071343.000,A,4909.882089,N,02016.655236,E,2.4,193.6,120815,,,A*6B
$GPGGA,071343.000,4909.882089,N,02016.655236,E,1,08,0.8,863.0,M,41.8,M,,*5D
$GPGSA,A,3,06,12,14,15,17,24,25,,,,,,1.6,0.8,1.3*3C
$GPGSV,2,1,08,02,19,133,04,06,27,096,22,12,69,286,22,14,29,306,20*78
$GPGSV,2,2,08,15,08,190,19,17,23,047,21,24,74,163,21,25,29,268,23*79
$GLGSV,1,1,01,88,56,154,19*5F
$GNGSA,A,3,06,12,14,15,17,24,25,,,,,,1.6,0.8,1.2*23
$GNGSA,A,3,88,,,,,,,,,,,,1.6,0.8,1.2*20
$GPRMC,071344.000,A,4909.881513,N,02016.655099,E,2.2,192.2,120815,,,A*6D
$GPGGA,071344.000,4909.881513,N,02016.655099,E,1,08,0.8,862.8,M,41.8,M,,*51
$GPGSA,A,3,06,12,14,15,17,24,25,,,,,,1.6,0.8,1.3*3C
$GPGSV,2,1,08,02,19,133,15,06,27,096,22,12,69,286,23,14,29,306,23*7A
$GPGSV,2,2,08,15,08,190,20,17,23,047,21,24,74,163,30,25,29,268,23*73
$GLGSV,1,1,01,88,56,154,20*55
$GNGSA,A,3,06,12,14,15,17,24,25,,,,,,1.6,0.8,1.2*23
$GNGSA,A,3,88,,,,,,,,,,,,1.6,0.8,1.2*20
$GPRMC,071345.000,A,4909.881052,N,02016.654811,E,1.9,194.2,120815,,,A*6B
$GPGGA,071345.000,4909.881052,N,02016.654811,E,1,08,0.8,862.8,M,41.8,M,,*59
$GPGSA,A,3,06,12,14,15,17,24,25,,,,,,1.6,0.8,1.3*3C
$GPGSV,2,1,08,02,19,133,15,06,27,096,23,12,69,286,23,14,29,306,23*7B
$GPGSV,2,2,08,15,08,190,20,17,23,047,21,24,74,163,29,25,29,268,24*7C
$GLGSV,1,1,01,88,56,154,20*55
$GNGSA,A,3,06,12,14,15,17,24,25,,,,,,1.6,0.8,1.2*23
$GNGSA,A,3,88,,,,,,,,,,,,1.6,0.8,1.2*20
$GPRMC,071346.000,A,4909.880661,N,02016.654710,E,1.5,198.2,120815,,,A*61
$GPGGA,071346.000,4909.880661,N,02016.654710,E,1,08,0.8,862.7,M,41.8,M,,*5C
$GPGSA,A,3,02,06,12,14,15,17,24,25,,,,,1.6,0.8,1.3*3E
$GPGSV,2,1,08,02,19,133,32,06,27,096,23,12,69,286,23,14,29,306,23*7E
$GPGSV,2,2,08,15,08,190,20,17,23,047,21,24,74,163,29,25,29,268,24*7C
$GLGSV,1,1,01,88,56,154,20*55
$GNGSA,A,3,02,06,12,14,15,17,24,25,,,,,1.4,0.8,1.2*23
$GNGSA,A,3,88,,,,,,,,,,,,1.4,0.8,1.2*22
$GPRMC,071347.000,A,4909.880092,N,02016.654200,E,1.9,196.2,120815,,,A*6C
$GPGGA,071347.000,4909.880092,N,02016.654200,E,1,09,0.8,862.7,M,41.8,M,,*52
$GPGSA,A,3,02,06,12,14,15,17,24,25,,,,,1.6,0.8,1.3*3E
$GPGSV,2,1,08,02,19,133,32,06,27,096,24,12,69,286,23,14,29,306,22*78
$GPGSV,2,2,08,15,08,190,19,17,23,047,21,24,74,163,28,25,29,268,24*77
$GLGSV,1,1,01,88,56,154,20*55
$GNGSA,A,3,02,06,12,14,15,17,24,25,,,,,1.4,0.8,1.2*23
$GNGSA,A,3,88,,,,,,,,,,,,1.4,0.8,1.2*22
$GPRMC,071348.000,A,4909.879774,N,02016.653456,E,1.9,195.4,120815,,,A*6D
$GPGGA,071348.000,4909.879774,N,02016.653456,E,1,09,0.8,862.7,M,41.8,M,,*56
$GPGSA,A,3,02,06,12,14,15,17,24,25,,,,,1.6,0.8,1.3*3E
$GPGSV,2,1,08,02,19,133,31,06,27,096,24,12,69,286,23,14,29,306,20*79
$GPGSV,2,2,08,15,08,190,19,17,23,047,20,24,74,163,28,25,29,268,24*76
$GLGSV,1,1,01,88,56,154,19*5F
$GNGSA,A,3,02,06,12,14,15,17,24,25,,,,,1.4,0.8,1.2*23
$GNGSA,A,3,88,,,,,,,,,,,,1.4,0.8,1.2*22
$GPRMC,071349.000,A,4909.879624,N,02016.652825,E,1.7,198.4,120815,,,A*62
$GPGGA,071349.000,4909.879624,N,02016.652825,E,1,09,0.8,862.9,M,41.8,M,,*54
$GPGSA,A,3,02,06,12,14,15,17,24,25,,,,,1.6,0.8,1.3*3E
$GPGSV,2,1,08,02,19,133,30,06,27,096,24,12,69,286,23,14,29,306,22*7A
$GPGSV,2,2,08,15,08,190,19,17,23,047,21,24,74,163,27,25,29,268,24*78
$GLGSV,1,1,01,88,56,154,19*5F
$GNGSA,A,3,02,06,12,14,15,17,24,25,,,,,1.4,0.8,1.2*23
$GNGSA,A,3,88,,,,,,,,,,,,1.4,0.8,1.2*22
$GPRMC,071350.000,A,4909.879144,N,02016.652627,E,1.7,198.8,120815,,,A*6B
$GPGGA,071350.000,4909.879144,N,02016.652627,E,1,09,0.8,862.9,M,41.8,M,,*51
$GPGSA,A,3,02,06,12,14,15,17,24,25,,,,,1.6,0.8,1.3*3E
$GPGSV,2,1,08,02,19,133,25,06,27,096,24,12,69,286,23,14,29,306,21*7D
$GPGSV,2,2,08,15,08,190,19,17,23,047,29,24,74,163,22,25,29,268,23*72
$GLGSV,1,1,01,88,56,154,19*5F
$GNGSA,A,3,02,06,12,14,15,17,24,25,,,,,1.4,0.8,1.2*23
$GNGSA,A,3,88,,,,,,,,,,,,1.4,0.8,1.2*22
$GPRMC,071351.000,A,4909.878928,N,02016.652412,E,1.1,199.2,120815,,,A*60
$GPGGA,071351.000,4909.878928,N,02016.652412,E,1,09,0.8,862.8,M,41.8,M,,*56
$GPGSA,A,3,02,06,12,14,15,17,24,25,,,,,1.6,0.8,1.3*3E
$GPGSV,2,1,08,02,19,133,25,06,27,096,24,12,69,286,23,14,29,306,21*7D
$GPGSV,2,2,08,15,08,190,19,17,23,047,30,24,74,163,22,25,29,268,19*73
$GLGSV,1,1,01,88,56,154,19*5F
$GNGSA,A,3,02,06,12,14,15,17,24,25,,,,,1.4,0.8,1.2*23
$GNGSA,A,3,88,,,,,,,,,,,,1.4,0.8,1.2*22
$GPRMC,071352.000,A,4909.880128,N,02016.653052,E,0.6,199.7,120815,,,A*6E
$GPGGA,071352.000,4909.880128,N,02016.653052,E,1,09,0.8,862.4,M,41.8,M,,*57
$GPGSA,A,3,02,06,12,14,15,17,24,25,,,,,1.6,0.8,1.3*3E
$GPGSV,2,1,08,02,19,133,24,06,27,096,24,12,69,286,23,14,29,306,29*74
$GPGSV,2,2,08,15,08,190,19,17,23,047,31,24,74,163,22,25,29,268,20*78
$GLGSV,1,1,01,88,56,154,18*5E
$GNGSA,A,3,02,06,12,14,15,17,24,25,,,,,1.4,0.8,1.2*23
$GNGSA,A,3,88,,,,,,,,,,,,1.4,0.8,1.2*22
$GPRMC,071353.000,A,4909.880812,N,02016.653251,E,0.7,200.2,120815,,,A*69
$GPGGA,071353.000,4909.880812,N,02016.653251,E,1,09,0.8,862.2,M,41.8,M,,*51
$GPGSA,A,3,06,12,14,15,17,24,25,,,,,,1.6,0.8,1.3*3C
$GPGSV,2,1,08,02,19,133,24,06,27,096,24,12,69,286,24,14,29,306,27*7D
$GPGSV,2,2,08,15,08,190,19,17,23,047,32,24,74,163,22,25,29,268,21*7A
$GLGSV,1,1,01,88,56,154,18*5E
$GNGSA,A,3,06,12,14,15,17,24,25,,,,,,1.6,0.8,1.2*23
$GNGSA,A,3,88,,,,,,,,,,,,1.6,0.8,1.2*20
$GPRMC,071354.000,A,4909.881436,N,02016.653870,E,1.0,130.2,120815,,,A*6A
$GPGGA,071354.000,4909.881436,N,02016.653870,E,1,08,0.8,862.0,M,41.8,M,,*57
$GPGSA,A,3,02,06,12,14,15,17,24,25,,,,,1.6,0.8,1.3*3E
$GPGSV,2,1,08,02,19,133,24,06,27,096,25,12,69,286,26,14,29,306,26*7F
$GPGSV,2,2,08,15,08,190,19,17,23,047,32,24,74,163,28,25,29,268,21*70
$GLGSV,1,1,01,88,56,154,18*5E
$GNGSA,A,3,02,06,12,14,15,17,24,25,,,,,1.4,0.8,1.2*23
$GNGSA,A,3,88,,,,,,,,,,,,1.4,0.8,1.2*22
$GPRMC,071355.000,A,4909.882125,N,02016.654632,E,2.2,56.2,120815,,,A*50
$GPGGA,071355.000,4909.882125,N,02016.654632,E,1,09,0.8,861.9,M,41.8,M,,*56
$GPGSA,A,3,02,12,14,15,17,24,25,,,,,,1.6,0.8,1.3*38
$GPGSV,2,1,08,02,19,133,24,06,27,096,29,12,69,286,28,14,29,306,28*73
$GPGSV,2,2,08,15,08,190,19,17,23,047,32,24,74,163,25,25,29,268,22*7E
$GLGSV,1,1,01,88,56,154,18*5E
$GNGSA,A,3,02,12,14,15,17,24,25,,,,,,1.4,0.8,1.2*25
$GNGSA,A,3,88,,,,,,,,,,,,1.4,0.8,1.2*22
$GPRMC,071356.000,A,4909.882546,N,02016.655550,E,2.4,38.9,120815,,,A*51
$GPGGA,071356.000,4909.882546,N,02016.655550,E,1,08,0.8,861.8,M,41.8,M,,*52
$GPGSA,A,3,02,06,12,14,15,17,24,25,,,,,1.6,0.8,1.3*3E
$GPGSV,2,1,08,02,19,133,17,06,27,096,24,12,69,286,28,14,29,306,27*71
$GPGSV,2,2,08,15,08,190,19,17,23,047,32,24,74,163,26,25,29,268,22*7D
$GLGSV,1,1,01,88,56,154,18*5E
$GNGSA,A,3,02,06,12,14,15,17,24,25,,,,,1.4,0.8,1.2*23
$GNGSA,A,3,88,,,,,,,,,,,,1.4,0.8,1.2*22
$GPRMC,071357.000,A,4909.882972,N,02016.656827,E,2.9,32.8,120815,,,A*53
$GPGGA,071357.000,4909.882972,N,02016.656827,E,1,09,0.8,861.7,M,41.8,M,,*58
$GPGSA,A,3,02,06,12,14,15,17,24,25,,,,,1.6,0.8,1.3*3E
$GPGSV,2,1,08,02,19,133,19,06,27,096,25,12,69,286,27,14,29,306,27*71
$GPGSV,2,2,08,15,08,190,18,17,23,047,33,24,74,163,26,25,29,268,22*7D
$GLGSV,1,1,01,88,56,154,18*5E
$GNGSA,A,3,02,06,12,14,15,17,24,25,,,,,1.4,0.8,1.2*23
$GNGSA,A,3,88,,,,,,,,,,,,1.4,0.8,1.2*22
$GPRMC,071358.000,A,4909.883632,N,02016.657817,E,2.9,33.4,120815,,,A*59
$GPGGA,071358.000,4909.883632,N,02016.657817,E,1,09,0.8,861.6,M,41.8,M,,*5E
$GPGSA,A,3,02,06,12,14,15,17,24,25,,,,,1.6,0.8,1.3*3E
$GPGSV,2,1,08,02,19,133,28,06,27,096,32,12,69,286,27,14,29,306,27*75
$GPGSV,2,2,08,15,08,190,18,17,23,047,33,24,74,163,25,25,29,268,21*7D
$GLGSV,1,1,01,88,56,154,17*51
$GNGSA,A,3,02,06,12,14,15,17,24,25,,,,,1.4,0.8,1.2*23
$GNGSA,A,3,88,,,,,,,,,,,,1.4,0.8,1.2*22
$GPRMC,071359.000,A,4909.884369,N,02016.658172,E,2.4,37.3,120815,,,A*5F
$GPGGA,071359.000,4909.884369,N,02016.658172,E,1,09,0.8,861.4,M,41.8,M,,*54
$GPGSA,A,3,02,06,12,14,15,17,24,25,,,,,1.6,0.8,1.3*3E
$GPGSV,2,1,08,02,19,133,26,06,27,096,31,12,69,286,27,14,29,306,20*7F
$GPGSV,2,2,08,15,08,190,18,17,23,047,32,24,74,163,26,25,29,268,21*7F
$GLGSV,1,1,01,88,56,154,18*5E
$GNGSA,A,3,02,06,12,14,15,17,24,25,,,,,1.4,0.8,1.2*23
$GNGSA,A,3,88,,,,,,,,,,,,1.4,0.8,1.2*22
$GPRMC,071400.000,A,4909.885210,N,02016.658435,E,2.3,43.9,120815,,,A*52
$GPGGA,071400.000,4909.885210,N,02016.658435,E,1,09,0.8,861.4,M,41.8,M,,*57
$GPGSA,A,3,02,06,12,14,15,17,24,25,,,,,1.6,0.8,1.3*3E
$GPGSV,2,1,08,02,19,133,26,06,27,096,30,12,69,286,26,14,29,306,20*7F
$GPGSV,2,2,08,15,08,190,27,17,23,047,27,24,74,163,26,25,29,268,21*77
$GLGSV,1,1,01,88,56,154,18*5E
$GNGSA,A,3,02,06,12,14,15,17,24,25,,,,,1.4,0.8,1.2*23
$GNGSA,A,3,88,,,,,,,,,,,,1.4,0.8,1.2*22
$GPRMC,071401.000,A,4909.885660,N,02016.658692,E,1.8,44.7,120815,,,A*5E
$GPGGA,071401.000,4909.885660,N,02016.658692,E,1,09,0.8,861.2,M,41.8,M,,*5C
$GPGSA,A,3,02,06,12,14,15,17,24,,,,,,1.6,0.8,1.3*39
$GPGSV,2,1,08,02,19,133,25,06,27,096,30,12,69,286,26,14,29,306,19*76
$GPGSV,2,2,08,15,08,190,26,17,23,047,27,24,74,163,26,25,29,268,21*76
$GLGSV,1,1,01,88,56,154,19*5F
$GNGSA,A,3,02,06,12,14,15,17,24,,,,,,1.6,0.8,1.2*26
$GNGSA,A,3,88,,,,,,,,,,,,1.6,0.8,1.2*20
$GPRMC,071402.000,A,4909.886056,N,02016.658980,E,1.7,47.9,120815,,,A*53
$GPGGA,071402.000,4909.886056,N,02016.658980,E,1,08,0.8,861.1,M,41.8,M,,*51
$GPGSA,A,3,02,06,12,14,15,17,24,25,,,,,1.6,0.8,1.3*3E
$GPGSV,2,1,08,02,19,133,25,06,27,096,29,12,69,286,26,14,29,306,19*7E
$GPGSV,2,2,08,15,08,190,25,17,23,047,29,24,74,163,26,25,29,268,21*7B
$GLGSV,1,1,01,88,56,154,19*5F
$GNGSA,A,3,02,06,12,14,15,17,24,25,,,,,1.4,0.8,1.2*23
$GNGSA,A,3,88,,,,,,,,,,,,1.4,0.8,1.2*22
$GPRMC,071403.000,A,4909.886362,N,02016.659635,E,1.9,58.6,120815,,,A*59
$GPGGA,071403.000,4909.886362,N,02016.659635,E,1,09,0.8,861.0,M,41.8,M,,*54
$GPGSA,A,3,02,06,12,14,15,17,24,25,,,,,1.6,0.8,1.3*3E
$GPGSV,2,1,08,02,19,133,25,06,27,096,24,12,69,286,26,14,29,306,19*73
$GPGSV,2,2,08,15,08,190,25,17,23,047,29,24,74,163,27,25,29,268,21*7A
$GLGSV,1,1,01,88,56,154,20*55
$GNGSA,A,3,02,06,12,14,15,17,24,25,,,,,1.4,0.8,1.2*23
$GNGSA,A,3,88,,,,,,,,,,,,1.4,0.8,1.2*22
$GPRMC,071404.000,A,4909.886644,N,02016.660588,E,2.2,68.8,120815,,,A*55
$GPGGA,071404.000,4909.886644,N,02016.660588,E,1,09,0.8,860.8,M,41.8,M,,*54
$GPGSA,A,3,02,06,12,14,15,17,24,25,,,,,1.6,0.8,1.3*3E
$GPGSV,2,1,08,02,19,133,25,06,27,096,24,12,69,286,26,14,29,306,18*72
$GPGSV,2,2,08,15,08,190,25,17,23,047,29,24,74,163,27,25,29,268,21*7A
$GLGSV,1,1,01,88,56,154,20*55
$GNGSA,A,3,02,06,12,14,15,17,24,25,,,,,1.4,0.8,1.2*23
$GNGSA,A,3,88,,,,,,,,,,,,1.4,0.8,1.2*22
$GPRMC,071405.000,A,4909.886710,N,02016.661662,E,2.3,86.3,120815,,,A*58
$GPGGA,071405.000,4909.886710,N,02016.661662,E,1,09,0.8,860.7,M,41.8,M,,*5C
$GPGSA,A,3,02,06,12,14,15,17,24,,,,,,1.6,0.8,1.3*39
$GPGSV,2,1,08,02,19,133,25,06,27,096,24,12,69,286,25,14,29,306,18*71
$GPGSV,2,2,08,15,08,190,35,17,23,047,29,24,74,163,27,25,29,268,21*7B
$GLGSV,1,1,01,88,56,154,21*54
$GNGSA,A,3,02,06,12,14,15,17,24,,,,,,1.6,0.8,1.2*26
$GNGSA,A,3,88,,,,,,,,,,,,1.6,0.8,1.2*20
$GPRMC,071406.000,A,4909.885924,N,02016.662028,E,2.0,97.9,120815,,,A*53
$GPGGA,071406.000,4909.885924,N,02016.662028,E,1,08,0.8,860.1,M,41.8,M,,*59
$GPGSA,A,3,02,06,12,14,15,17,24,25,,,,,1.6,0.8,1.3*3E
$GPGSV,2,1,08,02,19,133,25,06,27,096,25,12,69,286,25,14,29,306,18*70
$GPGSV,2,2,08,15,08,190,33,17,23,047,29,24,74,163,27,25,29,268,20*7C
$GLGSV,1,1,01,88,56,154,21*54
$GNGSA,A,3,02,06,12,14,15,17,24,25,,,,,1.4,0.8,1.2*23
$GNGSA,A,3,88,,,,,,,,,,,,1.4,0.8,1.2*22
$GPRMC,071407.000,A,4909.885432,N,02016.662604,E,2.1,107.2,120815,,,A*62
$GPGGA,071407.000,4909.885432,N,02016.662604,E,1,09,0.8,859.7,M,41.8,M,,*57
$GPGSA,A,3,02,06,12,14,15,17,24,25,,,,,1.6,0.8,1.3*3E
$GPGSV,2,1,08,02,19,133,25,06,27,096,25,12,69,286,25,14,29,306,18*70
$GPGSV,2,2,08,15,08,190,21,17,23,047,29,24,74,163,28,25,29,268,20*70
$GLGSV,1,1,01,88,56,154,21*54
$GNGSA,A,3,02,06,12,14,15,17,24,25,,,,,1.4,0.8,1.2*23
$GNGSA,A,3,88,,,,,,,,,,,,1.4,0.8,1.2*22
$GPRMC,071408.000,A,4909.885432,N,02016.663284,E,2.0,113.9,120815,,,A*6F
$GPGGA,071408.000,4909.885432,N,02016.663284,E,1,09,0.8,859.5,M,41.8,M,,*57
$GPGSA,A,3,02,06,12,14,15,17,24,25,,,,,1.6,0.8,1.3*3E
$GPGSV,2,1,08,02,19,133,25,06,27,096,25,12,69,286,25,14,29,306,17*7F
$GPGSV,2,2,08,15,08,190,20,17,23,047,28,24,74,163,28,25,29,268,25*75
$GLGSV,1,1,01,88,56,154,21*54
$GNGSA,A,3,02,06,12,14,15,17,24,25,,,,,1.4,0.8,1.2*23
$GNGSA,A,3,88,,,,,,,,,,,,1.4,0.8,1.2*22
$GPRMC,071409.000,A,4909.885222,N,02016.664310,E,2.3,118.9,120815,,,A*6A
$GPGGA,071409.000,4909.885222,N,02016.664310,E,1,09,0.8,859.5,M,41.8,M,,*5A
$GPGSA,A,3,02,06,12,15,24,25,,,,,,,2.2,1.4,1.6*32
$GPGSV,2,1,08,02,19,133,30,06,27,096,25,12,69,286,25,14,29,306,17*7B
$GPGSV,2,2,08,15,08,190,19,17,23,047,17,24,74,163,28,25,29,268,27*71
$GLGSV,1,1,01,88,56,154,21*54
$GNGSA,A,3,02,06,12,15,24,25,,,,,,,2.2,1.4,1.6*2C
$GNGSA,A,3,88,,,,,,,,,,,,2.2,1.4,1.6*2E
$GPRMC,071410.000,A,4909.884856,N,02016.665043,E,2.1,123.3,120815,,,A*6E
$GPGGA,071410.000,4909.884856,N,02016.665043,E,1,07,1.4,859.8,M,41.8,M,,*50
$GPGSA,A,3,02,06,12,14,15,17,24,25,,,,,1.6,0.8,1.3*3E
$GPGSV,2,1,08,02,19,133,28,06,27,096,31,12,69,286,25,14,29,306,17*77
$GPGSV,2,2,08,15,08,190,19,17,23,047,17,24,74,163,28,25,29,268,28*7E
$GLGSV,1,1,01,88,56,154,20*55
$GNGSA,A,3,02,06,12,14,15,17,24,25,,,,,1.4,0.8,1.2*23
$GNGSA,A,3,88,,,,,,,,,,,,1.4,0.8,1.2*22
$GPRMC,071411.000,A,4909.884225,N,02016.665132,E,1.8,133.5,120815,,,A*6B
$GPGGA,071411.000,4909.884225,N,02016.665132,E,1,09,0.8,860.0,M,41.8,M,,*59
$GPGSA,A,3,02,06,12,14,15,17,24,25,,,,,1.6,0.8,1.3*3E
$GPGSV,2,1,08,02,19,133,28,06,27,096,27,12,69,286,25,14,29,306,18*7F
$GPGSV,2,2,08,15,08,190,18,17,23,047,17,24,74,163,28,25,29,268,28*7F
$GLGSV,1,1,01,88,56,154,20*55
$GNGSA,A,3,02,06,12,14,15,17,24,25,,,,,1.4,0.8,1.2*23
$GNGSA,A,3,88,,,,,,,,,,,,1.4,0.8,1.2*22
$GPRMC,071412.000,A,4909.883314,N,02016.666248,E,1.8,148.3,120815,,,A*6B
$GPGGA,071412.000,4909.883314,N,02016.666248,E,1,09,0.8,860.4,M,41.8,M,,*57
$GPGSA,A,3,02,06,12,14,15,17,24,25,,,,,1.6,0.8,1.3*3E
$GPGSV,2,1,08,02,19,133,28,06,27,096,27,12,69,286,25,14,29,306,18*7F
$GPGSV,2,2,08,15,08,190,18,17,23,047,16,24,74,163,29,25,29,268,28*7F
$GLGSV,1,1,01,88,56,154,20*55
$GNGSA,A,3,02,06,12,14,15,17,24,25,,,,,1.4,0.8,1.2*23
$GNGSA,A,3,88,,,,,,,,,,,,1.4,0.8,1.2*22
$GPRMC,071413.000,A,4909.882768,N,02016.666584,E,1.7,160.9,120815,,,A*6C
$GPGGA,071413.000,4909.882768,N,02016.666584,E,1,09,0.8,860.8,M,41.8,M,,*53
$GPGSA,A,3,06,12,14,15,17,24,25,,,,,,1.6,0.8,1.3*3C
$GPGSV,2,1,08,02,19,133,27,06,27,096,26,12,69,286,25,14,29,306,29*73
$GPGSV,2,2,08,15,08,190,18,17,23,047,16,24,74,163,29,25,29,268,28*7F
$GLGSV,1,1,01,88,56,154,20*55
$GNGSA,A,3,06,12,14,15,17,24,25,,,,,,1.6,0.8,1.2*23
$GNGSA,A,3,88,,,,,,,,,,,,1.6,0.8,1.2*20
$GPRMC,071414.000,A,4909.882216,N,02016.666835,E,1.0,176.2,120815,,,A*6B
$GPGGA,071414.000,4909.882216,N,02016.666835,E,1,08,0.8,861.1,M,41.8,M,,*56
$GPGSA,A,3,02,06,12,14,15,17,24,25,,,,,1.6,0.8,1.3*3E
$GPGSV,2,1,08,02,19,133,21,06,27,096,26,12,69,286,25,14,29,306,28*74
$GPGSV,2,2,08,15,08,190,18,17,23,047,17,24,74,163,29,25,29,268,29*7F
$GLGSV,1,1,01,88,56,154,20*55
$GNGSA,A,3,02,06,12,14,15,17,24,25,,,,,1.4,0.8,1.2*23
$GNGSA,A,3,88,,,,,,,,,,,,1.4,0.8,1.2*22
$GPRMC,071415.000,A,4909.881784,N,02016.666651,E,0.7,187.7,120815,,,A*66
$GPGGA,071415.000,4909.881784,N,02016.666651,E,1,09,0.8,861.3,M,41.8,M,,*55
$GPGSA,A,3,02,06,12,14,15,17,24,25,,,,,1.6,0.8,1.3*3E
$GPGSV,2,1,08,02,19,133,20,06,27,096,25,12,69,286,26,14,29,306,28*75
$GPGSV,2,2,08,15,08,190,18,17,23,047,17,24,74,163,28,25,29,268,29*7E
$GLGSV,1,1,01,88,56,154,20*55
$GNGSA,A,3,02,06,12,14,15,17,24,25,,,,,1.4,0.8,1.2*23
$GNGSA,A,3,88,,,,,,,,,,,,1.4,0.8,1.2*22
$GPRMC,071416.000,A,4909.881717,N,02016.666464,E,0.2,183.7,120815,,,A*6A
$GPGGA,071416.000,4909.881717,N,02016.666464,E,1,09,0.8,861.4,M,41.8,M,,*5F
$GPGSA,A,3,02,06,12,14,15,17,24,25,,,,,1.6,0.8,1.3*3E
$GPGSV,2,1,08,02,19,133,20,06,27,096,16,12,69,286,26,14,29,306,29*74
$GPGSV,2,2,08,15,08,190,18,17,23,047,17,24,74,163,23,25,29,268,28*74
$GLGSV,1,1,01,88,56,154,20*55
$GNGSA,A,3,02,06,12,14,15,17,24,25,,,,,1.4,0.8,1.2*23
$GNGSA,A,3,88,,,,,,,,,,,,1.4,0.8,1.2*22
$GPRMC,071417.000,A,4909.881682,N,02016.666200,E,0.4,183.3,120815,,,A*60
$GPGGA,071417.000,4909.881682,N,02016.666200,E,1,09,0.8,861.5,M,41.8,M,,*56
$GPGSA,A,3,02,12,14,15,24,25,,,,,,,2.3,1.6,1.6*32
$GPGSV,2,1,08,02,19,133,29,06,27,096,16,12,69,286,26,14,29,306,29*7D
$GPGSV,2,2,08,15,08,190,18,17,23,047,17,24,74,163,22,25,29,268,28*75
$GLGSV,1,1,01,88,56,154,19*5F
$GNGSA,A,3,02,12,14,15,24,25,,,,,,,2.2,1.6,1.4*2F
$GNGSA,A,3,88,,,,,,,,,,,,2.2,1.6,1.4*2E
$GPRMC,071418.000,A,4909.882048,N,02016.666180,E,1.1,240.3,120815,,,A*6F
$GPGGA,071418.000,4909.882048,N,02016.666180,E,1,07,1.6,861.5,M,41.8,M,,*50
$GPGSA,A,3,02,06,12,14,15,17,24,25,,,,,1.6,0.8,1.3*3E
$GPGSV,2,1,08,02,19,133,27,06,27,096,17,12,69,286,27,14,29,306,28*72
$GPGSV,2,2,08,15,08,190,17,17,23,047,17,24,74,163,22,25,29,268,28*7A
$GLGSV,1,1,01,88,56,154,19*5F
$GNGSA,A,3,02,06,12,14,15,17,24,25,,,,,1.4,0.8,1.2*23
$GNGSA,A,3,88,,,,,,,,,,,,1.4,0.8,1.2*22
$GPRMC,071419.000,A,4909.882156,N,02016.665881,E,0.9,249.3,120815,,,A*6B
$GPGGA,071419.000,4909.882156,N,02016.665881,E,1,09,0.8,861.4,M,41.8,M,,*54
$GPGSA,A,3,02,06,12,14,15,17,24,25,,,,,1.6,0.8,1.3*3E
$GPGSV,2,1,08,02,19,133,25,06,27,096,17,12,69,286,26,14,29,306,28*71
$GPGSV,2,2,08,15,08,190,18,17,23,047,17,24,74,163,22,25,29,268,24*79
$GLGSV,1,1,01,88,56,154,19*5F
$GNGSA,A,3,02,06,12,14,15,17,24,25,,,,,1.4,0.8,1.2*23
$GNGSA,A,3,88,,,,,,,,,,,,1.4,0.8,1.2*22
$GPRMC,071420.000,A,4909.881856,N,02016.665552,E,0.4,258.4,120815,,,A*62
$GPGGA,071420.000,4909.881856,N,02016.665552,E,1,09,0.8,861.4,M,41.8,M,,*57
$GPGSA,A,3,02,06,12,14,15,17,24,25,,,,,1.6,0.8,1.3*3E
$GPGSV,2,1,08,02,19,133,24,06,27,096,17,12,69,286,26,14,29,306,28*70
$GPGSV,2,2,08,15,08,190,18,17,23,047,17,24,74,163,23,25,29,268,23*7F
$GLGSV,1,1,01,88,56,154,18*5E
$GNGSA,A,3,02,06,12,14,15,17,24,25,,,,,1.4,0.8,1.2*23
$GNGSA,A,3,88,,,,,,,,,,,,1.4,0.8,1.2*22
$GPRMC,071421.000,A,4909.881544,N,02016.665270,E,0.4,267.5,120815,,,A*67
$GPGGA,071421.000,4909.881544,N,02016.665270,E,1,09,0.8,861.5,M,41.8,M,,*5E
$GPGSA,A,3,02,06,12,14,15,17,24,25,,,,,1.6,0.8,1.3*3E
$GPGSV,2,1,08,02,19,133,24,06,27,096,16,12,69,286,24,14,29,306,27*7C
$GPGSV,2,2,08,15,08,190,18,17,23,047,17,24,74,163,23,25,29,268,23*7F
$GLGSV,1,1,01,88,56,154,18*5E
$GNGSA,A,3,02,06,12,14,15,17,24,25,,,,,1.4,0.8,1.2*23
$GNGSA,A,3,88,,,,,,,,,,,,1.4,0.8,1.2*22
$GPRMC,071422.000,A,4909.881033,N,02016.664886,E,0.6,276.5,120815,,,A*61
$GPGGA,071422.000,4909.881033,N,02016.664886,E,1,09,0.8,861.5,M,41.8,M,,*5A
$GPGSA,A,3,02,06,12,14,15,17,24,25,,,,,1.6,0.8,1.3*3E
$GPGSV,2,1,08,02,19,133,25,06,27,096,16,12,69,286,25,14,29,306,27*7C
$GPGSV,2,2,08,15,08,190,18,17,23,047,17,24,74,163,28,25,29,268,22*75
$GLGSV,1,1,01,88,56,154,18*5E
$GNGSA,A,3,02,06,12,14,15,17,24,25,,,,,1.4,0.8,1.2*23
$GNGSA,A,3,88,,,,,,,,,,,,1.4,0.8,1.2*22
$GPRMC,071423.000,A,4909.880272,N,02016.664670,E,1.0,246.7,120815,,,A*67
$GPGGA,071423.000,4909.880272,N,02016.664670,E,1,09,0.8,861.5,M,41.8,M,,*5A
$GPGSA,A,3,02,06,12,14,15,17,24,25,,,,,1.6,0.8,1.3*3E
$GPGSV,2,1,08,02,19,133,25,06,27,096,17,12,69,286,24,14,29,306,28*73
$GPGSV,2,2,08,15,08,190,18,17,23,047,18,24,74,163,24,25,29,268,23*77
$GLGSV,1,1,01,88,56,154,18*5E
$GNGSA,A,3,02,06,12,14,15,17,24,25,,,,,1.4,0.8,1.2*23
$GNGSA,A,3,88,,,,,,,,,,,,1.4,0.8,1.2*22
$GPRMC,071424.000,A,4909.879492,N,02016.663939,E,2.2,221.4,120815,,,A*68
$GPGGA,071424.000,4909.879492,N,02016.663939,E,1,09,0.8,861.5,M,41.8,M,,*56
$GPGSA,A,3,02,06,12,14,15,17,24,25,,,,,1.6,0.8,1.3*3E
$GPGSV,2,1,08,02,20,133,24,06,28,095,17,12,70,288,24,14,29,305,27*7E
$GPGSV,2,2,08,15,07,190,19,17,22,046,18,24,73,162,24,25,31,269,23*77
$GLGSV,1,1,01,88,56,154,18*5E
$GNGSA,A,3,02,06,12,14,15,17,24,25,,,,,1.4,0.8,1.2*23
$GNGSA,A,3,88,,,,,,,,,,,,1.4,0.8,1.2*22
$GPRMC,071425.000,A,4909.878664,N,02016.663636,E,2.3,204.5,120815,,,A*64
$GPGGA,071425.000,4909.878664,N,02016.663636,E,1,09,0.8,861.4,M,41.8,M,,*5C
$GPGSA,A,3,02,06,12,14,15,17,24,25,,,,,1.6,0.8,1.3*3E
$GPGSV,2,1,08,02,20,133,25,06,28,095,16,12,70,288,25,14,29,305,26*7E
$GPGSV,2,2,08,15,07,190,27,17,22,046,18,24,73,162,24,25,31,269,31*79
$GLGSV,1,1,02,81,21,183,22,88,56,154,18*6D
$GNGSA,A,3,02,06,12,14,15,17,24,25,,,,,1.4,0.8,1.2*23
$GNGSA,A,3,88,,,,,,,,,,,,1.4,0.8,1.2*22
$GPRMC,071426.000,A,4909.877476,N,02016.662731,E,1.5,201.0,120815,,,A*6B
$GPGGA,071426.000,4909.877476,N,02016.662731,E,1,09,0.8,861.2,M,41.8,M,,*50
$GPGSA,A,3,02,12,14,15,24,25,,,,,,,2.4,1.6,1.6*35
$GPGSV,2,1,08,02,20,133,25,06,28,095,16,12,70,288,25,14,29,305,25*7D
$GPGSV,2,2,08,15,07,190,25,17,22,046,18,24,73,162,25,25,31,269,30*7B
$GLGSV,1,1,02,81,21,183,22,88,56,154,18*6D
$GNGSA,A,3,02,12,14,15,24,25,,,,,,,2.2,1.6,1.4*2F
$GNGSA,A,3,88,,,,,,,,,,,,2.2,1.6,1.4*2E
$GPRMC,071427.000,A,4909.876588,N,02016.662006,E,1.6,200.3,120815,,,A*69
$GPGGA,071427.000,4909.876588,N,02016.662006,E,1,07,1.6,861.0,M,41.8,M,,*50
$GPGSA,A,3,02,06,12,14,15,17,24,25,,,,,1.6,0.8,1.3*3E
$GPGSV,2,1,08,02,20,133,26,06,28,095,16,12,70,288,25,14,29,305,25*7E
$GPGSV,2,2,08,15,07,190,25,17,22,046,18,24,73,162,26,25,31,269,30*78
$GLGSV,1,1,02,81,21,183,23,88,56,154,18*6C
$GNGSA,A,3,02,06,12,14,15,17,24,25,,,,,1.4,0.8,1.2*23
$GNGSA,A,3,88,,,,,,,,,,,,1.4,0.8,1.2*22
